city,lat,lng,country
Kabul,34.5253,69.1783,Afghanistan
Kandah?r,31.62,65.7158,Afghanistan
Her?t,34.3419,62.2031,Afghanistan
Far?h,32.3436,62.1194,Afghanistan
Maz?r-e Shar?f,36.7,67.1167,Afghanistan
Lashkar G?h,31.5831,64.3692,Afghanistan
Kunduz,36.7286,68.8681,Afghanistan
Jal?l?b?d,34.4342,70.4478,Afghanistan
T?luq?n,36.7167,69.5167,Afghanistan
Shibirgh?n,36.665,65.752,Afghanistan
Zaranj,30.96,61.86,Afghanistan
Kh?st,33.3331,69.9169,Afghanistan
Ma?manah,35.9333,64.75,Afghanistan
Mehtar L?m,34.6683,70.2089,Afghanistan
Ghazn?,33.5492,68.4233,Afghanistan
Paghm?n,34.5833,68.95,Afghanistan
Pul-e Khumr?,35.95,68.7,Afghanistan
B?my?n,34.825,67.8333,Afghanistan
Ch?r?k?r,35.0131,69.1689,Afghanistan
Tar?n K??,32.6267,65.8733,Afghanistan
Gard?z,33.6,69.2169,Afghanistan
Fa???b?d,37.1166,70.58,Afghanistan
Qal‘ah-ye Now,34.9867,63.1292,Afghanistan
Sar-e Pul,36.2214,65.9278,Afghanistan
Ma?m?d-e R?q?,35.0206,69.3306,Afghanistan
Asad?b?d,34.8742,71.1528,Afghanistan
Ma?d?n Shahr,34.3972,68.8697,Afghanistan
B?z?rak,35.3128,69.5158,Afghanistan
Pul-e ‘Alam,33.9808,69.035,Afghanistan
Fayr?z K?h,34.5225,65.2517,Afghanistan
Qal?t,32.1061,66.9069,Afghanistan
A?bak,36.2653,68.0167,Afghanistan
P?r?n,35.4167,70.9169,Afghanistan
Sharan,33.1757,68.7304,Afghanistan
N?l?,33.7218,66.1302,Afghanistan
Balkh,36.7581,66.8981,Afghanistan
Baghl?n,36.1328,68.7,Afghanistan
B?z?r-e Yak?wlang,34.7333,66.9667,Afghanistan
Gh?riy?n,34.34,61.47,Afghanistan
Haskah M?nah,34.1,70.4667,Afghanistan
?qchah,36.9114,66.1858,Afghanistan
G?d?rah,34.8169,69.0878,Afghanistan
Andkh?y,36.95,65.1167,Afghanistan
K??ah-ye ‘As?h?r?,34.4492,68.7939,Afghanistan
Bagr?m?,34.4911,69.2756,Afghanistan
B?l? K?h,36.5753,66.8203,Afghanistan
Khulm,36.6833,67.6833,Afghanistan
Kh?n?b?d,36.6831,69.1636,Afghanistan
?uk?mat? Baghr?n,33.0669,65.0917,Afghanistan
Sheghn?n,37.6167,71.45,Afghanistan
Barak? Barak,33.9692,68.9447,Afghanistan
Sang?n,32.0733,64.8339,Afghanistan
Qal‘ah-ye Z?l,37.015,68.4672,Afghanistan
Karukh,34.4922,62.5922,Afghanistan
Kushk,33.2956,61.9522,Afghanistan
Qarq?n,37.4128,66.0472,Afghanistan
Isl?m Qal‘ah,34.6667,61.0667,Afghanistan
Za?ah Sharan,33.13,68.78,Afghanistan
Barak?,33.9333,68.9167,Afghanistan
Taywarah,33.51,64.42,Afghanistan
Zargh?n Shahr,32.85,68.4167,Afghanistan
Kuhs?n,34.65,61.1667,Afghanistan
?uk?mat? G?z?b,33.3813,66.2655,Afghanistan
Panj?b,34.3833,67.0167,Afghanistan
Im?m ???ib,37.1844,68.9144,Afghanistan
M?m? Kh?l,34.25,70.01,Afghanistan
Tujg,32.0686,61.8058,Afghanistan
Deh-e Sh?,30.4344,63.3183,Afghanistan
Ch?chkah,37.0706,69.2983,Afghanistan
Tirana,41.3289,19.8178,Albania
Vlorë,40.4667,19.4833,Albania
Kamëz,41.3833,19.7667,Albania
Fier,40.725,19.5572,Albania
Durrës,41.3111,19.4392,Albania
Shkodër,42.0681,19.5119,Albania
Elbasan,41.1111,20.0806,Albania
Korçë,40.6167,20.7667,Albania
Berat,40.7,19.95,Albania
Gjirokastër,40.0667,20.1333,Albania
Lezhë,41.7819,19.6444,Albania
Kukës,42.0833,20.4167,Albania
Peshkopi,41.6833,20.4281,Albania
Sarandë,39.875,20.01,Albania
Lushnjë,40.9333,19.7,Albania
Kavajë,41.1842,19.5619,Albania
Pogradec,40.9,20.65,Albania
Fushë-Krujë,41.4833,19.7167,Albania
Laç,41.6353,19.7131,Albania
Sukth,41.3833,19.5333,Albania
Buçimas,40.8917,20.6806,Albania
Patos,40.6833,19.6167,Albania
Kuçovë,40.8039,19.9144,Albania
Librazhd-Qendër,41.1969,20.3356,Albania
Krujë,41.5,19.8,Albania
Burrel,41.6083,20.0111,Albania
Gramsh,40.8667,20.1833,Albania
Perondi,40.7833,19.9333,Albania
Libonik,40.75,20.7167,Albania
Belsh,40.9833,19.8833,Albania
Rrëshen,41.7667,19.8833,Albania
Librazhd,41.1833,20.3167,Albania
Përmet,40.2333,20.35,Albania
Bajram Curri,42.3581,20.0758,Albania
Tepelenë,40.2967,20.0189,Albania
Ersekë,40.3333,20.6833,Albania
Çorovodë,40.5,20.2167,Albania
Pukë,42.05,19.9,Albania
Algiers,36.7539,3.0589,Algeria
Oran,35.6969,-0.6331,Algeria
Constantine,36.365,6.6147,Algeria
Blida,36.4722,2.8333,Algeria
Batna,35.55,6.1667,Algeria
Sétif,36.19,5.41,Algeria
Djelfa,34.6667,3.25,Algeria
Annaba,36.9,7.7667,Algeria
Sidi Bel Abbès,35.2,-0.6333,Algeria
Biskra,34.85,5.7333,Algeria
Tébessa,35.4,8.1167,Algeria
Tiaret,35.3667,1.3167,Algeria
Bejaïa,36.7511,5.0642,Algeria
Tlemcen,34.8828,-1.3167,Algeria
Bordj Bou Arreridj,36.0667,4.7667,Algeria
Skikda,36.8667,6.9,Algeria
Béchar,31.6333,-2.2,Algeria
El Eulma,36.1528,5.69,Algeria
Chlef,36.1647,1.3317,Algeria
Souk Ahras,36.2864,7.9511,Algeria
M’Sila,35.7058,4.5419,Algeria
Mostaganem,35.9333,0.0833,Algeria
Médéa,36.2675,2.75,Algeria
Tizi Ouzou,36.7169,4.0497,Algeria
El Oued,33.3683,6.8675,Algeria
Laghouat,33.8,2.865,Algeria
Jijel,36.8206,5.7667,Algeria
Ouargla,31.95,5.3167,Algeria
Relizane,35.7372,0.5558,Algeria
Saïda,34.8303,0.1517,Algeria
Guelma,36.4619,7.4258,Algeria
Ghardaïa,32.4833,3.6667,Algeria
Aïn Beïda,35.7964,7.3928,Algeria
Khenchela,35.4167,7.1333,Algeria
Bou Saâda,35.2083,4.1739,Algeria
Mascara,35.4,0.1333,Algeria
Messaad,34.1542,3.4969,Algeria
Aïn Oussera,35.4489,2.9044,Algeria
Oum el Bouaghi,35.8706,7.115,Algeria
El Bayadh,33.6831,1.0192,Algeria
Dar el Beïda,36.7142,3.2125,Algeria
Aïn Temouchent,35.3044,-1.14,Algeria
Tamanrasset,22.785,5.5228,Algeria
Tissemsilt,35.6072,1.8106,Algeria
Bouira,36.38,3.9014,Algeria
Adrar,27.8742,-0.2939,Algeria
Boudouaou,36.73,3.41,Algeria
Tindouf,27.6753,-8.1286,Algeria
Boumerdes,36.7603,3.4724,Algeria
El Golea,30.6,2.9,Algeria
Touggourt,33.1,6.0667,Algeria
Timimoun,29.25,0.2333,Algeria
I-n-Salah,27.1936,2.4606,Algeria
El Tarf,36.7669,8.3136,Algeria
Tipasa,36.5942,2.443,Algeria
Illizi,26.508,8.4829,Algeria
Bordj Mokhtar,21.3289,0.9542,Algeria
Naama,33.2678,-0.3111,Algeria
Djanet,24.555,9.4853,Algeria
Beni Abbès,30.08,-2.1,Algeria
In Guezzam,19.5686,5.7722,Algeria
Aïn Defla,36.2583,1.9583,Algeria
Mila,36.4481,6.2622,Algeria
Ouled Djellal,34.4167,5.0667,Algeria
El Meghaïer,33.9506,5.9242,Algeria
Es Senia,35.6478,-0.6239,Algeria
Aïn M’Lila,36.0367,6.5719,Algeria
Khemis Miliana,36.26,2.2,Algeria
El Milia,36.75,6.2667,Algeria
Chelghoum el Aïd,36.1667,6.1667,Algeria
Khemis el Khechna,36.65,3.3306,Algeria
Bordj Menaïel,36.7417,3.7231,Algeria
Mecheria,33.55,-0.2833,Algeria
Aïn Sefra,32.75,-0.5833,Algeria
Rouiba,36.7333,3.2833,Algeria
Tighenif,35.4167,0.333,Algeria
Lakhdaria,36.5622,3.5944,Algeria
Boufarik,36.575,2.9097,Algeria
Azzaba,36.7333,7.1,Algeria
Akbou,36.4667,4.5333,Algeria
’Aïn Azel,35.8433,5.5219,Algeria
Ouled Moussa,36.6831,3.3681,Algeria
Hassi Messaoud,31.7,6.0667,Algeria
’Aïn Arnat,36.1833,5.3167,Algeria
Draa el Mizan,36.5333,3.8333,Algeria
Souma,36.5183,2.9053,Algeria
Bougara,36.5333,3.0833,Algeria
Azazga,36.7453,4.3711,Algeria
Didouche Mourad,36.4484,6.6339,Algeria
Dellys,36.9133,3.9141,Algeria
Draa Ben Khedda,36.7349,3.9556,Algeria
Boghni,36.5437,3.9523,Algeria
’Aïn Abid,36.2325,6.944,Algeria
Tizi Gheniff,36.5891,3.7678,Algeria
El Kseur,36.6844,4.8522,Algeria
L’Arbaa Naït Irathen,36.6367,4.2067,Algeria
N’Gaous,35.555,5.6106,Algeria
Timizart,36.8,4.2667,Algeria
Babar,35.1692,7.1013,Algeria
Freha,36.762,4.3163,Algeria
Mekla,36.6876,4.2681,Algeria
Tadjmout,33.8667,2.5167,Algeria
Beni Amrane,36.6686,3.5922,Algeria
Makouda,36.7909,4.0669,Algeria
Tadmaït,36.7427,3.9019,Algeria
Amoucha,36.388,5.4108,Algeria
Naciria,36.75,3.8333,Algeria
Kadiria,36.5333,3.6833,Algeria
Djinet,36.877,3.7231,Algeria
Beni Douala,36.6167,4.0667,Algeria
Thenia,36.7278,3.5539,Algeria
Tizi-n-Bechar,36.4311,5.36,Algeria
’Aïn el Hammam,36.5714,4.3097,Algeria
Aomar,36.5,3.7833,Algeria
Tala Yfassene,36.4583,5.0889,Algeria
Reggane,26.7,0.1667,Algeria
Arbaoun,36.4667,5.65,Algeria
Tirmitine,36.6618,3.9848,Algeria
Timoktene,27.0217,1.015,Algeria
Bettioua,35.8,-0.2667,Algeria
Beni Fouda,36.2861,5.6071,Algeria
Tizi Rached,36.6718,4.1918,Algeria
Aïn Zaouïa,36.5483,3.8942,Algeria
Sidi Daoud,36.85,3.85,Algeria
Azeffoun,36.8961,4.4204,Algeria
Tichi,36.6675,5.1601,Algeria
’Aïn Abessa,36.3,5.295,Algeria
Chorfa,36.3617,4.3307,Algeria
Ouadhia,36.55,4.0833,Algeria
Boudjima,36.814,4.1588,Algeria
Tizi-n-Tleta,36.5457,4.0571,Algeria
Aït Yaïch,36.5811,4.3303,Algeria
Ouled Sidi Brahim,36.3667,3.7167,Algeria
Iflissen,36.8636,4.2203,Algeria
Abadla,31.0167,-2.7333,Algeria
Takerbouzt,36.418,4.3428,Algeria
Moudjbara,34.5037,3.4704,Algeria
Afir,36.7676,3.7029,Algeria
Mechtras,36.5448,4.0049,Algeria
Sali,26.9833,-0.0333,Algeria
El Marsa,36.8111,3.2556,Algeria
Arhribs,36.8022,4.3227,Algeria
Si Mustapha,36.7247,3.6153,Algeria
Iferhounene,36.5338,4.3701,Algeria
El Adjiba,36.3333,4.15,Algeria
Yakouren,36.7348,4.4386,Algeria
Tigzirt,36.8931,4.1225,Algeria
Bechloul,36.3167,4.0667,Algeria
El Ançor,35.6833,-0.8667,Algeria
’Aïn Roua,36.3344,5.1806,Algeria
Charouine,29.0167,-0.2667,Algeria
Bir Ghbalou,36.2642,3.5836,Algeria
Sidi Namane,36.7581,3.9839,Algeria
Sidi Brahim,35.2606,-0.5675,Algeria
Ben N’Choud,36.8624,3.8806,Algeria
Bordj Okhriss,36.0833,3.9667,Algeria
Ben Nasseur,33.1107,6.441,Algeria
Souama,36.6417,4.3416,Algeria
Bou Nouh,36.5,3.9333,Algeria
Toudja,36.7586,4.8933,Algeria
Ifigha,36.6667,4.4167,Algeria
Ouled Rached,36.2119,4.1106,Algeria
Seddouk Oufella,36.6061,4.6389,Algeria
I-n-Amenas,28.05,9.55,Algeria
Abalessa,22.89,4.8472,Algeria
Boukhralfa,36.6144,5.0872,Algeria
Tifra,36.6664,4.6972,Algeria
Amalou,36.4778,4.6333,Algeria
Beni Ounif,32.05,-1.25,Algeria
I-n-Amguel,23.6936,5.1647,Algeria
Pago Pago,-14.274,-170.7046,American Samoa
Andorra la Vella,42.5,1.5,Andorra
Escaldes-Engordany,42.5089,1.5408,Andorra
Encamp,42.5361,1.5828,Andorra
La Massana,42.5444,1.5144,Andorra
Sant Julià de Lòria,42.465,1.4911,Andorra
Ordino,42.555,1.5331,Andorra
Canillo,42.5667,1.6,Andorra
Luanda,-8.8383,13.2344,Angola
Cacuaco,-8.8053,13.2444,Angola
Lubango,-14.9167,13.5,Angola
Cabinda,-5.56,12.19,Angola
Huambo,-12.7767,15.7347,Angola
Malanje,-9.5333,16.35,Angola
Benguela,-12.55,13.4167,Angola
Belas,-8.9983,13.265,Angola
Talatona,-8.9167,13.1833,Angola
Lobito,-12.3597,13.5308,Angola
Saurimo,-9.65,20.4,Angola
Cubal,-13.1117,14.3672,Angola
Luena,-11.7918,19.9062,Angola
Cuito,-12.3833,16.9333,Angola
Uíge,-7.6167,15.05,Angola
Menongue,-14.6556,17.6842,Angola
Vila Teixeira da Silva,-12.0072,15.7792,Angola
Sumbe,-11.2053,13.8417,Angola
Gabela,-10.85,14.3667,Angola
Ndulo,-11.4833,15.8333,Angola
Moçâmedes,-15.1953,12.1508,Angola
Ganda,-13.0858,14.7417,Angola
Barra do Dande,-8.4728,13.3731,Angola
Soio,-6.1333,12.3667,Angola
Tchitato,-7.345,20.8198,Angola
Chibia,-15.1833,13.7,Angola
Ucu Seles,-11.4047,14.3006,Angola
Cuango,-9.1444,18.0464,Angola
Dundo,-7.3801,20.8351,Angola
Catumbela,-12.4167,13.5333,Angola
Cazanga,-9.3,14.95,Angola
Caluquembe,-13.9208,14.5347,Angola
Catape,-13.7667,15.0833,Angola
Ebo,-11,14.6667,Angola
Bocoio,-12.4667,14.1333,Angola
Quibala,-10.7333,14.9833,Angola
Ndalatando,-9.3,14.9167,Angola
Quipungo,-14.8167,14.5167,Angola
Lucapa,-8.4228,20.7393,Angola
Mbanza Kongo,-6.2667,14.25,Angola
Maquela do Zombo,-6.05,15.1167,Angola
Namacunde,-17.3,15.85,Angola
Negage,-7.7667,15.2667,Angola
Porto Amboim,-10.7183,13.75,Angola
Quimbele,-6.5167,16.2167,Angola
Londuimbali,-12.2186,15.285,Angola
Chicomba,-14.1333,14.9167,Angola
Chinguar,-12.55,16.3333,Angola
Catabola,-12.1167,17.3,Angola
Ondjiva,-17.0667,15.7333,Angola
Catchiungo,-12.7864,16.3233,Angola
Cassongue,-11.8333,15,Angola
Quilengues,-14.0814,14.0764,Angola
Mungo,-11.6667,16.1667,Angola
Balombo,-12.35,14.7667,Angola
Baía Farta,-12.6128,13.1987,Angola
Ndjamba,-14.7,16.0667,Angola
Caxito,-8.58,13.6642,Angola
Quilenda,-10.6333,14.3333,Angola
Caimbambo,-12.9,14.0833,Angola
Cambambe,-9.7586,14.5122,Angola
Uacu Cungo,-11.3583,15.1194,Angola
Luau,-10.7044,22.2283,Angola
Conda,-11.1667,14.5,Angola
Humpata,-15.0725,13.3678,Angola
Chongoroi,-13.5667,13.95,Angola
Longonjo,-12.9067,15.1864,Angola
Calandala,-9.0667,17.9,Angola
Capenda Camulemba,-9.5647,18.7633,Angola
Kuvango,-14.4667,16.3,Angola
Chitembo,-13.5167,16.7667,Angola
Cunhinga,-12.2333,16.7833,Angola
Dondo,-9.6942,14.4228,Angola
Xangongo,-16.7467,14.9747,Angola
Cahama,-16.2833,14.3167,Angola
Sanza Pombo,-7.3333,16,Angola
Chipindo,-13.8244,15.8,Angola
Camabatela,-8.1833,15.3667,Angola
Sungo,-11.2333,14.3167,Angola
Nambuangongo,-8.0167,14.2,Angola
Calulo,-10.0007,14.901,Angola
Camacupa,-12.0256,17.4686,Angola
Cuvelai,-15.6667,15.8,Angola
Nova Esperança,-6.7333,15.9,Angola
Cuemba,-12.15,18.0833,Angola
Porto Alexandre,-15.8,11.85,Angola
Ucuma,-12.85,15.0667,Angola
Luquembo,-10.7333,17.8833,Angola
Cangola,-7.9667,15.8667,Angola
Cambundi Catembo,-10.0756,17.5569,Angola
Cangandala,-9.7833,16.4333,Angola
Mucaba,-7.1667,14.9333,Angola
Cuchi,-14.65,16.9,Angola
Cuito Cuanavale,-15.1667,19.1667,Angola
Cacuso,-8.2333,15.35,Angola
Puri,-7.6833,15.6,Angola
Quilevo,-7.6167,15.05,Angola
Golungo Alto,-9.1333,14.7667,Angola
Muconda,-10.6,21.3167,Angola
Massango,-11.3167,14.9333,Angola
Bembe,-7.1,14.45,Angola
Buco Zau,-4.795,12.5467,Angola
Virei,-15.7167,12.95,Angola
Cacolo,-10.1333,19.2667,Angola
Tchindjendje,-12.8167,14.9333,Angola
Mucari,-9.4667,16.9167,Angola
Dala,-11.0342,20.2036,Angola
Marimba,-8.3667,17.0167,Angola
Ambriz,-7.85,13.1167,Angola
Lucala,-9.6333,14.0667,Angola
Samba Cango,-9.1,15.55,Angola
Caombo,-8.7,16.5167,Angola
Quirima,-10.9,18.0833,Angola
Alto-Cuilo,-8.2371,19.5238,Angola
Cacongo,-5.2333,12.1333,Angola
Quela,-9.3833,17.05,Angola
Luacano,-11.2167,21.65,Angola
Lubalo,-9.15,19.2833,Angola
Quibaxi,-8.5,14.5833,Angola
Ambiula,-7.4333,14.65,Angola
Bolongongo,-8.4667,15.25,Angola
Cunda diá Baze,-8.9167,17.0667,Angola
Nzeto,-7.229,12.865,Angola
Songo,-7.3496,14.85,Angola
Banga,-8.7333,15.1667,Angola
Quiculungo,-8.5167,15.3167,Angola
Chibemba,-15.7355,13.8905,Angola
Cazombo,-11.9058,22.9217,Angola
Bala Cangamba,-13.6833,19.8667,Angola
Calenga,-11.3196,16.2,Angola
Tchitado,-17.3167,13.9167,Angola
The Valley,18.2167,-63.05,Anguilla
Saint John’s,17.1167,-61.85,Antigua and Barbuda
Buenos Aires,-34.5997,-58.3819,Argentina
Córdoba,-31.4167,-64.1833,Argentina
Rosario,-32.9575,-60.6394,Argentina
Santiago del Estero,-27.7833,-64.2667,Argentina
Comodoro Rivadavia,-45.8647,-67.4808,Argentina
Mar del Plata,-38,-57.55,Argentina
San Miguel de Tucumán,-26.8167,-65.2167,Argentina
Salta,-24.7833,-65.4167,Argentina
San Juan,-31.5342,-68.5261,Argentina
Lanús,-34.7,-58.4,Argentina
Florencio Varela,-34.8167,-58.2833,Argentina
Santa Fe,-31.6333,-60.7,Argentina
Corrientes,-27.4833,-58.8167,Argentina
San Salvador de Jujuy,-24.1833,-65.3,Argentina
Bahía Blanca,-38.7167,-62.2667,Argentina
Resistencia,-27.4514,-58.9867,Argentina
Posadas,-27.3667,-55.9,Argentina
Quilmes,-34.7167,-58.2667,Argentina
Paraná,-31.7331,-60.5297,Argentina
Merlo,-34.6653,-58.7275,Argentina
González Catán,-34.7667,-58.6167,Argentina
Formosa,-26.1833,-58.1833,Argentina
Banfield,-34.75,-58.3833,Argentina
Neuquén,-38.9525,-68.0642,Argentina
José C. Paz,-34.5167,-58.7667,Argentina
Isidro Casanova,-34.7,-58.5833,Argentina
La Plata,-34.9211,-57.9544,Argentina
Godoy Cruz,-32.9167,-68.8333,Argentina
Las Heras,-32.85,-68.8167,Argentina
Berazategui,-34.7167,-58.25,Argentina
La Rioja,-29.4125,-66.8542,Argentina
San Luis,-33.3,-66.3333,Argentina
San Miguel,-34.5333,-58.7167,Argentina
José María Ezeiza,-34.8333,-58.5167,Argentina
General Roca,-39.0333,-67.5833,Argentina
San Nicolás de los Arroyos,-33.3333,-60.2167,Argentina
Catamarca,-28.4667,-65.7833,Argentina
Rafael Castillo,-34.7167,-58.6167,Argentina
Río Cuarto,-33.1333,-64.35,Argentina
Florencio Varela,-34.8167,-58.3833,Argentina
Concordia,-31.4,-58.0333,Argentina
San Justo,-34.6833,-58.55,Argentina
Ituzaingó,-34.6667,-58.6667,Argentina
Temperley,-34.7667,-58.3833,Argentina
Ramos Mejía,-34.65,-58.5667,Argentina
Lomas de Zamora,-34.7667,-58.4,Argentina
San Rafael,-34.6,-68.3333,Argentina
San Martín,-33.0806,-68.4706,Argentina
Mendoza,-32.8833,-68.8167,Argentina
Tandil,-37.3167,-59.1333,Argentina
Puerto Madryn,-42.7667,-65.05,Argentina
Bernal,-34.7,-58.2833,Argentina
Esteban Echeverría,-34.8167,-58.4667,Argentina
Castelar,-34.6667,-58.6667,Argentina
San Carlos de Bariloche,-41.15,-71.3,Argentina
Villa Mercedes,-33.6667,-65.4667,Argentina
Gualeguaychú,-33.0167,-58.5167,Argentina
Villa Krause,-31.5833,-68.5333,Argentina
Luján,-34.5667,-59.1,Argentina
Morón,-34.65,-58.6167,Argentina
Maipú,-32.9667,-68.75,Argentina
La Banda,-27.7333,-64.25,Argentina
Villa Luzuriaga,-34.6667,-58.5833,Argentina
Caseros,-34.6106,-58.5625,Argentina
Libertad,-34.6833,-58.6833,Argentina
Santa Rosa,-36.6167,-64.2833,Argentina
Burzaco,-34.8167,-58.3667,Argentina
Ciudad General Belgrano,-34.7167,-58.5333,Argentina
San Francisco Solano,-34.7667,-58.3167,Argentina
Río Gallegos,-51.6233,-69.2161,Argentina
Monte Chingolo,-34.7333,-58.35,Argentina
Grand Bourg,-34.4833,-58.7167,Argentina
Remedios de Escalada,-34.7167,-58.4,Argentina
Ezpeleta,-34.7517,-58.2344,Argentina
Villa Celina,-34.7006,-58.4825,Argentina
El Palomar,-34.6167,-58.5833,Argentina
Lomas del Mirador,-34.6667,-58.5297,Argentina
Ciudadela,-34.6333,-58.5333,Argentina
Viedma,-40.8,-63,Argentina
Bella Vista,-34.5333,-58.6667,Argentina
Gerli,-34.6833,-58.3667,Argentina
Wilde,-34.7,-58.3167,Argentina
Martínez,-34.4833,-58.5,Argentina
Villa Domínico,-34.6917,-58.3333,Argentina
Banda del Río Salí,-26.85,-65.1667,Argentina
Los Polvorines,-34.5,-58.7,Argentina
Hurlingham,-34.5883,-58.6392,Argentina
Beccar,-34.4667,-58.5167,Argentina
Glew,-34.8833,-58.3833,Argentina
Rafael Calzada,-34.7833,-58.3667,Argentina
Mariano Acosta,-34.7167,-58.7833,Argentina
Ushuaia,-54.8019,-68.3031,Argentina
Florida,-34.5167,-58.5,Argentina
Longchamps,-34.85,-58.3833,Argentina
Villa Alsina,-34.6667,-58.4167,Argentina
San Isidro,-34.4667,-58.5167,Argentina
José Mármol,-34.7833,-58.3667,Argentina
Llavallol,-34.7667,-58.3833,Argentina
Dock Sur,-34.6417,-58.3478,Argentina
Claypole,-34.8,-58.3333,Argentina
Ingeniero Pablo Nogués,-34.4667,-58.7667,Argentina
Haedo,-34.65,-58.6,Argentina
Munro,-34.5333,-58.5167,Argentina
Villa Adelina,-34.5175,-58.5475,Argentina
Adrogue,-34.8,-58.3833,Argentina
Avellaneda,-34.6625,-58.3678,Argentina
Vicente López,-34.5333,-58.475,Argentina
Muñiz,-34.5333,-58.7,Argentina
Tapiales,-34.7058,-58.5047,Argentina
Don Bosco,-34.7,-58.2833,Argentina
Martín Coronado,-34.6,-58.55,Argentina
Billinghurst,-34.5667,-58.5333,Argentina
Rawson,-43.3,-65.1,Argentina
Villa Sarmiento,-34.6333,-58.5667,Argentina
La Lucila,-34.4833,-58.4833,Argentina
Aldo Bonzi,-34.7083,-58.5181,Argentina
Acasusso,-34.4667,-58.5167,Argentina
Malvinas Argentinas,-31.3697,-64.0531,Argentina
Zárate,-34.0833,-59.0333,Argentina
Trelew,-43.25,-65.3,Argentina
Rafaela,-31.2667,-61.4833,Argentina
Necochea,-38.55,-58.7333,Argentina
Presidencia Roque Sáenz Peña,-26.7833,-60.45,Argentina
Olavarría,-36.9,-60.3333,Argentina
Chimbas,-31.5,-68.5319,Argentina
Berisso,-34.8728,-57.8858,Argentina
Pergamino,-33.8836,-60.5669,Argentina
Cipolletti,-38.9333,-67.9833,Argentina
Campana,-34.1667,-58.9167,Argentina
General Rodríguez,-34.6167,-58.95,Argentina
Junín,-34.5833,-60.95,Argentina
Rivadavia,-31.5303,-68.5947,Argentina
Rivadavia,-33.1833,-68.4667,Argentina
Puerto Iguazú,-25.6,-54.5667,Argentina
Pilar,-34.4588,-58.9142,Argentina
Gobernador Gálvez,-33.0256,-60.6336,Argentina
Villa María,-32.4103,-63.2314,Argentina
Venado Tuerto,-33.75,-61.9667,Argentina
San Ramón de la Nueva Orán,-23.1333,-64.3333,Argentina
Reconquista,-29.1443,-59.6438,Argentina
Luján de Cuyo,-32.998,-68.873,Argentina
Concepción del Uruguay,-32.4833,-58.2333,Argentina
Goya,-29.1333,-59.25,Argentina
San Pedro,-33.6794,-59.6669,Argentina
Río Grande,-53.7833,-67.7,Argentina
Oberá,-27.4833,-55.1333,Argentina
Don Torcuato,-34.5,-58.6167,Argentina
Santo Tomé,-31.6667,-60.7667,Argentina
Pirané,-25.7328,-59.11,Argentina
Mercedes,-34.65,-59.4333,Argentina
Tartagal,-22.5,-63.8333,Argentina
Villa Carlos Paz,-31.4,-64.5167,Argentina
San Francisco,-31.4356,-62.0714,Argentina
Sarandí,-34.6833,-58.3333,Argentina
Garín,-34.4167,-58.75,Argentina
San Pedro,-24.2196,-64.87,Argentina
Punta Alta,-38.88,-62.075,Argentina
Chivilcoy,-34.9,-60.0167,Argentina
Cosquín,-31.2436,-64.4653,Argentina
Eldorado,-26.4,-54.6333,Argentina
General Pico,-35.6667,-63.7333,Argentina
Azul,-36.7833,-59.85,Argentina
Belén de Escobar,-34.3333,-58.8167,Argentina
Ensenada,-34.8644,-57.9103,Argentina
Barranqueras,-27.4833,-58.9333,Argentina
Guernica,-34.9167,-58.3833,Argentina
Clorinda,-25.2833,-57.7167,Argentina
Cruz del Eje,-30.7333,-64.8,Argentina
Caleta Olivia,-46.4333,-67.5333,Argentina
El Talar de Pacheco,-34.4719,-58.655,Argentina
Yerba Buena,-26.8167,-65.3167,Argentina
Palpalá,-24.25,-65.1167,Argentina
Concepción,-27.3333,-65.5833,Argentina
Villaguay,-31.85,-59.0167,Argentina
Libertador General San Martín,-23.8,-64.7833,Argentina
Tunuyán,-33.5667,-69.0167,Argentina
La Reja,-34.6394,-58.8283,Argentina
Alta Gracia,-31.6667,-64.4333,Argentina
San Lorenzo,-28.12,-58.77,Argentina
Catriel,-37.8667,-67.8333,Argentina
Villa Constitución,-33.2333,-60.3333,Argentina
General Martín Miguel de Güemes,-24.6667,-65.05,Argentina
Tres Arroyos,-38.3667,-60.2667,Argentina
Río Tercero,-32.1833,-64.1,Argentina
San Lorenzo,-32.75,-60.7333,Argentina
Chajarí,-30.7667,-57.9833,Argentina
Pinamar,-37.1,-56.85,Argentina
Balcarce,-37.8456,-58.2578,Argentina
General Pacheco,-34.45,-58.65,Argentina
Esperanza,-31.4167,-60.9333,Argentina
Paso de los Libres,-29.7167,-57.0833,Argentina
Gualeguay,-33.15,-59.3333,Argentina
Coronel Suárez,-37.4667,-61.9333,Argentina
Villa Ángela,-27.5833,-60.7167,Argentina
Apóstoles,-27.9167,-55.7667,Argentina
Tafí Viejo,-26.7333,-65.2667,Argentina
Marcos Paz,-34.7667,-58.8333,Argentina
Alderetes,-26.8167,-65.1333,Argentina
Chacabuco,-34.6333,-60.4667,Argentina
Aristóbulo del Valle,-27.1167,-54.9167,Argentina
Granadero Baigorria,-32.85,-60.7,Argentina
Esquel,-42.9,-71.3167,Argentina
Nueve de Julio,-35.45,-60.8833,Argentina
Cutral-Có,-38.9333,-69.2333,Argentina
Casilda,-33.05,-61.1667,Argentina
Centenario,-38.8,-68.1333,Argentina
Curuzú Cuatiá,-29.7833,-58.0833,Argentina
Bell Ville,-32.6333,-62.6833,Argentina
Chilecito,-29.1667,-67.5,Argentina
Chascomús,-35.575,-58.0089,Argentina
Mercedes,-29.2,-58.0833,Argentina
City Bell,-34.85,-58.05,Argentina
Bragado,-35.1167,-60.5,Argentina
La Calera,-31.3439,-64.3353,Argentina
Plottier,-38.95,-68.2333,Argentina
Aguilares,-27.4333,-65.6167,Argentina
Termas de Río Hondo,-27.4833,-64.8667,Argentina
Quitilipi,-26.8667,-60.2167,Argentina
Zapala,-38.9,-70.0667,Argentina
Cañuelas,-35.0333,-58.7333,Argentina
General José de San Martín,-26.5375,-59.3417,Argentina
Jesús María,-30.9833,-64.1,Argentina
Lobos,-35.1833,-59.0833,Argentina
Pichanal,-23.3167,-64.2167,Argentina
Gobernador Virasora,-28.05,-56.0333,Argentina
Victoria,-32.6167,-60.1667,Argentina
Miramar,-38.2667,-57.8333,Argentina
Villa Regina,-39.1,-67.0667,Argentina
General Alvear,-34.9667,-67.7,Argentina
Villa Dolores,-31.9333,-65.2,Argentina
Villa Gesell,-37.2556,-56.9681,Argentina
Capitán Bermúdez,-32.8167,-60.7167,Argentina
Cañada de Gómez,-32.8167,-61.4,Argentina
Garupá,-27.4833,-55.8333,Argentina
Bella Vista,-28.4667,-59.05,Argentina
Baradero,-33.8,-59.5167,Argentina
Villa Allende,-31.3,-64.3,Argentina
Caucete,-31.65,-68.2833,Argentina
Lincoln,-34.85,-61.5167,Argentina
San Martín de los Andes,-40.1667,-71.35,Argentina
Malargüe,-35.475,-69.5833,Argentina
Marcos Juárez,-32.7,-62.1,Argentina
Pérez,-33,-60.7667,Argentina
Las Flores,-36.0139,-59.1,Argentina
Frías,-28.6333,-65.1333,Argentina
Charata,-27.2167,-61.2,Argentina
Arrecifes,-34.0667,-60.1167,Argentina
Rosario de la Frontera,-25.8,-64.9667,Argentina
Dolores,-36.3167,-57.6667,Argentina
Mar de Ajó,-36.7203,-56.6878,Argentina
Firmat,-33.45,-61.4833,Argentina
Leandro N. Alem,-27.6,-55.3333,Argentina
Tres Isletas,-26.35,-60.4167,Argentina
La Paz,-30.75,-59.65,Argentina
Embarcación,-23.2167,-64.1,Argentina
Manuel B. Gonnet,-34.85,-58.0167,Argentina
Funes,-32.9167,-60.8167,Argentina
Monte Caseros,-30.25,-57.65,Argentina
Veinticinco de Mayo,-35.4167,-60.1667,Argentina
Avellaneda,-29.1175,-59.6583,Argentina
Melchor Romero,-34.9492,-58.0472,Argentina
Monteros,-27.1667,-65.5,Argentina
Santo Tomé,-28.55,-56.05,Argentina
Añatuya,-28.4667,-62.8333,Argentina
Colón,-33.8833,-61.1,Argentina
Colón,-32.2167,-58.1333,Argentina
Famaillá,-27.05,-65.4,Argentina
Las Breñas,-27.0667,-61.0667,Argentina
Allen,-38.9667,-67.8333,Argentina
Nogoyá,-32.4,-59.8,Argentina
Cinco Saltos,-38.8167,-68.0667,Argentina
Arroyito,-31.4167,-63.05,Argentina
Río Ceballos,-31.1667,-64.3167,Argentina
San Martín,-31.4397,-68.5206,Argentina
Machagai,-26.9167,-60.0333,Argentina
San Justo,-30.7833,-60.5833,Argentina
Rosario de Lerma,-24.9833,-65.5833,Argentina
Alejandro Korn,-34.9667,-58.3667,Argentina
Deán Funes,-30.4333,-64.35,Argentina
San Isidro de Lules,-26.9333,-65.35,Argentina
Carlos Casares,-35.6167,-61.3667,Argentina
El Calafate,-50.3333,-72.2833,Argentina
San José de Jáchal,-30.2333,-68.75,Argentina
Pico Truncado,-46.795,-67.955,Argentina
Matheu,-34.3667,-58.8333,Argentina
Arroyo Seco,-33.1667,-60.5,Argentina
Profesor Salvador Mazza,-22.05,-63.7,Argentina
Sunchales,-30.9333,-61.5667,Argentina
Laboulaye,-34.1167,-63.4,Argentina
Carmen de Patagones,-40.7833,-62.9667,Argentina
Brandsen,-35.1667,-58.2167,Argentina
Río Segundo,-31.6501,-63.9116,Argentina
Crespo,-32.0333,-60.3167,Argentina
Ituzaingó,-27.6,-56.6667,Argentina
Vera,-29.4667,-60.2167,Argentina
Diamante,-32.0667,-60.65,Argentina
El Bolsón,-41.9667,-71.5333,Argentina
Villa Nueva,-32.4331,-63.2475,Argentina
Carlos Spegazzini,-34.8833,-58.5667,Argentina
Rufino,-34.2667,-62.7,Argentina
Unquillo,-31.2333,-64.3167,Argentina
Gálvez,-32.0333,-61.2167,Argentina
Saladas,-28.25,-58.6167,Argentina
Coronda,-31.9667,-60.9167,Argentina
General Juan Madariaga,-37.0167,-57.1333,Argentina
General Deheza,-32.7564,-63.7889,Argentina
Las Heras,-46.55,-68.95,Argentina
Santa Elena,-30.95,-59.8,Argentina
Cerrillos,-24.9,-65.4833,Argentina
Puerto Rico,-26.8,-55.0167,Argentina
Veinticinco de Mayo,-37.7712,-67.7174,Argentina
Ayacucho,-37.1333,-58.4667,Argentina
Santa María,-26.6833,-66.0333,Argentina
Morteros,-30.7,-62,Argentina
La Quiaca,-22.1042,-65.5972,Argentina
Daireaux,-36.6,-61.75,Argentina
Federación,-30.9833,-57.9167,Argentina
La Falda,-31.0833,-64.5,Argentina
Carcarañá,-32.85,-61.15,Argentina
Villa San José,-32.2,-58.2167,Argentina
General Villegas,-35.0333,-63.0167,Argentina
San Antonio Oeste,-40.7333,-64.95,Argentina
Carhué,-37.1796,-62.7601,Argentina
Federal,-30.95,-58.8,Argentina
Coquimbito,-32.9667,-68.75,Argentina
Santa Rosa,-33.25,-68.15,Argentina
General Pinedo,-27.3167,-61.2833,Argentina
Wanda,-25.9667,-54.5833,Argentina
Villa del Rosario,-31.5833,-63.5333,Argentina
San Luis del Palmar,-27.5167,-58.5667,Argentina
Villa Paranacito,-33.7,-58.6833,Argentina
Fray Luis A. Beltrán,-32.7833,-60.7333,Argentina
Bella Vista,-27.0333,-65.3,Argentina
Villa Ojo de Agua,-29.5167,-63.7,Argentina
Pilar,-31.6833,-63.9,Argentina
Carmen de Areco,-34.3858,-59.8294,Argentina
Tostado,-29.2333,-61.7667,Argentina
Ceres,-29.8667,-61.95,Argentina
San Cristóbal,-30.3167,-61.2333,Argentina
Benito Juárez,-37.6667,-59.7833,Argentina
Puerto Deseado,-47.75,-65.9167,Argentina
Andalgalá,-27.6,-66.3167,Argentina
Las Rosas,-32.4833,-61.5833,Argentina
San Javier,-30.5833,-59.95,Argentina
General Belgrano,-35.7667,-58.5,Argentina
General Viamonte,-35,-61.0333,Argentina
Joaquín V. González,-25.0833,-64.1833,Argentina
Ingeniero Maschwitz,-34.3667,-58.75,Argentina
Puerto San Martín,-32.7167,-60.7333,Argentina
Empedrado,-27.9333,-58.7833,Argentina
Plaza Huincul,-38.9338,-69.1987,Argentina
Oncativo,-31.9167,-63.6667,Argentina
General Enrique Mosconi,-22.6,-63.8167,Argentina
Chos Malal,-37.3833,-70.2667,Argentina
Villa Nueva,-32.9,-68.7667,Argentina
Chamical,-30.3667,-66.3167,Argentina
Santa Rosa de Calamuchita,-32.0667,-64.5333,Argentina
General Las Heras,-34.9333,-58.95,Argentina
Rosario del Tala,-32.3,-59.1333,Argentina
San Salvador,-31.6167,-58.5,Argentina
Junín de los Andes,-39.9167,-71.0667,Argentina
General Acha,-37.3833,-64.6,Argentina
La Carlota,-33.4333,-63.3,Argentina
Monte Quemado,-25.8036,-62.8303,Argentina
Laguna Paiva,-31.3039,-60.6589,Argentina
Las Parejas,-32.6833,-61.5333,Argentina
Las Lomitas,-24.7072,-60.5944,Argentina
Villa Unión,-29.3,-68.2,Argentina
Belén,-27.65,-67.0333,Argentina
Presidencia de la Plaza,-26.9833,-59.8333,Argentina
Lobería,-38.1333,-58.7667,Argentina
Justo Daract,-33.8667,-65.1667,Argentina
Villa Berthet,-27.2667,-60.4167,Argentina
Recreo,-29.2667,-65.0667,Argentina
Cafayate,-26.0833,-65.9667,Argentina
Río Colorado,-38.9908,-64.0958,Argentina
Oliva,-32.0333,-63.5667,Argentina
Santa Lucía,-28.9833,-59.1,Argentina
Navarro,-35.0167,-59.2667,Argentina
Coronel Dorrego,-38.7,-61.2667,Argentina
Tinogasta,-28.0667,-67.5667,Argentina
Humahuaca,-23.2,-65.35,Argentina
Capitán Sarmiento,-34.1667,-59.7833,Argentina
Capilla del Monte,-30.85,-64.5167,Argentina
Armstrong,-32.7833,-61.6,Argentina
Hernando,-32.4167,-63.7333,Argentina
El Trébol,-32.1833,-61.7167,Argentina
San Bernardo,-27.2667,-60.7,Argentina
San Carlos Centro,-31.7333,-61.1,Argentina
Villa La Angostura,-40.7625,-71.6463,Argentina
Quimilí,-27.6333,-62.4167,Argentina
Villa Nougues,-26.8578,-65.3756,Argentina
San Roque,-28.5667,-58.7167,Argentina
Sarmiento,-45.6,-69.0833,Argentina
Campo Largo,-26.8,-60.8333,Argentina
Ingeniero White,-38.7667,-62.2667,Argentina
Frontera,-31.4278,-62.0619,Argentina
Corzuela,-26.9333,-60.9667,Argentina
Corral de Bustos,-33.2833,-62.2,Argentina
Leones,-32.6617,-62.2967,Argentina
Villa Elisa,-32.1667,-58.4,Argentina
San José de Feliciano,-30.3833,-58.75,Argentina
Batán,-38.0078,-57.7097,Argentina
Choele Choel,-39.2667,-65.6833,Argentina
La Leonesa,-27.05,-58.7167,Argentina
Brinkmann,-30.8669,-62.0336,Argentina
Alcorta,-33.5333,-61.1167,Argentina
Ciudad de Loreto,-28.3,-64.2,Argentina
General Alvear,-36.0333,-60.0167,Argentina
Puerto Tirol,-27.3667,-59.0667,Argentina
Basavilbaso,-32.3667,-58.8833,Argentina
Santa María,-31.2611,-64.4639,Argentina
Henderson,-36.2833,-61.7167,Argentina
La Paz,-33.4667,-67.55,Argentina
Villa Cañás,-34,-61.6,Argentina
Adolfo Gonzáles Chaves,-38.0333,-60.0833,Argentina
Huinca Renancó,-34.8333,-64.3833,Argentina
Abra Pampa,-22.7167,-65.7,Argentina
Castelli,-25.95,-60.6167,Argentina
Magdalena,-35.0833,-57.5167,Argentina
Capilla del Señor,-34.2833,-59.1,Argentina
Monte Rico,-24.4514,-65.1667,Argentina
Embalse,-32.1833,-64.4167,Argentina
Sauce,-30.0667,-58.7667,Argentina
Rada Tilly,-45.9333,-67.5333,Argentina
Villa Aberastain,-31.65,-68.5833,Argentina
Santa Sylvina,-27.7833,-61.15,Argentina
Coronel Du Graty,-27.6667,-60.9333,Argentina
Mburucuyá,-28.05,-58.2333,Argentina
Urdinarrain,-32.6856,-58.8867,Argentina
Maipú,-36.8667,-57.8667,Argentina
Yacimiento Río Turbio,-51.5333,-72.3,Argentina
Pampa del Infierno,-26.5167,-61.1667,Argentina
San Julián,-49.3,-67.7167,Argentina
Rinconada,-22.4333,-66.1667,Argentina
Ingeniero Guillermo N. Juárez,-23.9,-61.85,Argentina
Comandante Luis Piedra Buena,-49.983,-68.91,Argentina
Ingeniero Jacobacci,-41.3,-69.5833,Argentina
Veintiocho de Noviembre,-51.65,-72.3,Argentina
Chepes,-31.35,-66.6,Argentina
General Conesa,-40.1,-64.4167,Argentina
San Antonio de los Cobres,-24.2178,-66.32,Argentina
Perito Moreno,-46.5886,-70.9242,Argentina
Gobernador Gregores,-48.7667,-70.25,Argentina
Victorica,-36.2167,-65.45,Argentina
Comandante Fontana,-25.3333,-59.6833,Argentina
Las Lajas,-38.6,-70.3,Argentina
El Maitén,-42.05,-71.1667,Argentina
Trancas,-26.2172,-65.2831,Argentina
Río Mayo,-45.6869,-70.26,Argentina
Rodeo,-30.2164,-69.1394,Argentina
Chumbicha,-28.8667,-66.2333,Argentina
Alto Río Senguer,-45.0167,-70.8167,Argentina
Sierra Colorada,-40.5833,-67.8,Argentina
Susques,-23.4167,-66.4833,Argentina
Comallo,-41.0333,-70.2667,Argentina
Gastre,-42.2667,-69.2167,Argentina
Telsen,-42.3833,-66.95,Argentina
Pedro Luro,-39.5,-62.6833,Argentina
Monte Cristo,-31.3431,-63.9444,Argentina
Romang,-29.5,-59.7667,Argentina
Viale,-31.8667,-60.0167,Argentina
Uspallata,-32.5667,-69.3167,Argentina
Darregueira,-37.6996,-63.1666,Argentina
Villalonga,-39.8829,-62.5833,Argentina
Villa Rumipal,-32.1879,-64.4803,Argentina
Los Blancos,-23.6,-62.6,Argentina
Yerevan,40.1814,44.5144,Armenia
Gyumri,40.7894,43.8475,Armenia
Vanadzor,40.8128,44.4883,Armenia
Hrazdan,40.5,44.7667,Armenia
Abovyan,40.2739,44.6256,Armenia
Kapan,39.2011,46.415,Armenia
Armavir,40.15,44.04,Armenia
Charentsavan,40.4097,44.6431,Armenia
Artashat,39.9539,44.5506,Armenia
Ashtarak,40.2975,44.3617,Armenia
Ijevan,40.8792,45.1472,Armenia
Gavarr,40.3589,45.1267,Armenia
Nor Hachn,40.3019,44.5831,Armenia
Byureghavan,40.3147,44.5936,Armenia
Yeghegnadzor,39.7611,45.3333,Armenia
Ejmiatsin,40.1728,44.2925,Armenia
Sevan,40.555,44.9536,Armenia
Stepanavan,41.0096,44.3841,Armenia
Masis,40.0633,44.4408,Armenia
Goris,39.5078,46.3386,Armenia
Ararat,39.8303,44.7025,Armenia
Artik,40.6172,43.9758,Armenia
Dilijan,40.7408,44.8631,Armenia
Spitak,40.8372,44.2675,Armenia
Sisian,39.5208,46.0322,Armenia
Vedi,39.9106,44.7278,Armenia
Alaverdi,41.1333,44.65,Armenia
Vardenis,40.1806,45.72,Armenia
Martuni,40.14,45.3064,Armenia
Metsamor,40.1428,44.1164,Armenia
Yeghvard,40.3217,44.4814,Armenia
Ayntap,40.0986,44.4681,Armenia
Berd,40.8808,45.3917,Armenia
Vardenik,40.1331,45.4367,Armenia
Akhuryan,40.7814,43.8964,Armenia
Nerk’in Getashen,40.1467,45.2642,Armenia
Tashir,41.1244,44.2819,Armenia
Oranjestad,12.5186,-70.0358,Aruba
Tanki Leendert,12.5418,-70.022,Aruba
Sydney,-33.8678,151.21,Australia
Melbourne,-37.8142,144.9631,Australia
Brisbane,-27.4678,153.0281,Australia
Perth,-31.9559,115.8606,Australia
Adelaide,-34.9275,138.6,Australia
Canberra,-35.2931,149.1269,Australia
Gold Coast,-28.0167,153.4,Australia
Cranbourne,-38.0996,145.2834,Australia
Central Coast,-33.3,151.2,Australia
Wollongong,-34.4331,150.8831,Australia
Hobart,-42.8806,147.325,Australia
Geelong,-38.15,144.35,Australia
Townsville,-19.25,146.8167,Australia
Ipswich,-27.6167,152.7667,Australia
Newcastle,-32.9167,151.75,Australia
Cairns,-16.92,145.78,Australia
Darwin,-12.4381,130.8411,Australia
Toowoomba,-27.5667,151.95,Australia
Launceston,-41.4419,147.145,Australia
Caloundra,-26.7986,153.1289,Australia
Dandenong,-37.981,145.215,Australia
Campbelltown,-34.0733,150.8261,Australia
Leopold,-38.1892,144.4644,Australia
Corinda,-27.4833,153.1,Australia
Ballarat,-37.5608,143.8475,Australia
Bendigo,-36.75,144.2667,Australia
Mackay,-21.1411,149.1858,Australia
Melton,-37.6833,144.5833,Australia
Bunbury,-33.3272,115.6369,Australia
Bundaberg,-24.8661,152.3494,Australia
Wagga Wagga,-35.1189,147.3689,Australia
Hervey Bay,-25.29,152.84,Australia
Pakenham,-38.0712,145.4878,Australia
Port Macquarie,-31.4333,152.9,Australia
Dubbo,-32.2569,148.6011,Australia
Orange,-33.2833,149.1,Australia
Sunbury,-37.5811,144.7139,Australia
Geraldton,-28.7744,114.6089,Australia
Frankston,-38.158,145.135,Australia
Gladstone,-23.8427,151.2555,Australia
Bathurst,-33.42,149.5778,Australia
Mildura,-34.1889,142.1583,Australia
Southport,-27.9667,153.4,Australia
Shepparton,-36.3833,145.4,Australia
Kalgoorlie,-30.7489,121.4658,Australia
Warrnambool,-38.3833,142.4833,Australia
Albany,-35.0228,117.8814,Australia
Quakers Hill,-33.7344,150.8789,Australia
Burnie,-41.0636,145.8753,Australia
Coffs Harbour,-30.3022,153.1189,Australia
Caboolture,-27.0667,152.967,Australia
Mount Gambier,-37.8294,140.7828,Australia
Traralgon,-38.1958,146.5403,Australia
Busselton,-33.6478,115.3458,Australia
Armidale,-30.5,151.65,Australia
Alice Springs,-23.7,133.8667,Australia
Devonport,-41.18,146.3503,Australia
Goulburn,-34.7547,149.6186,Australia
Whyalla,-33.0333,137.5667,Australia
Kwinana,-32.2394,115.7702,Australia
Mount Eliza,-38.189,145.092,Australia
Griffith,-34.29,146.04,Australia
Wodonga,-36.1214,146.8881,Australia
Narangba,-27.2015,152.9655,Australia
Broken Hill,-31.95,141.4667,Australia
Wangaratta,-36.3583,146.3125,Australia
Taree,-31.9,152.45,Australia
Banora Point,-28.2225,153.5386,Australia
Nerang,-27.9956,153.322,Australia
Lara,-38.0167,144.4167,Australia
Karratha,-20.7364,116.8464,Australia
Cessnock,-32.8342,151.3555,Australia
Warragul,-38.15,145.9333,Australia
Maryborough,-25.5375,152.7019,Australia
Ulladulla,-35.3486,150.4678,Australia
Ulverstone,-41.1667,146.1667,Australia
Barwon Heads,-38.25,144.5167,Australia
Horsham,-36.7167,142.2,Australia
Rochedale,-27.6,153.133,Australia
Murray Bridge,-35.117,139.267,Australia
Australind,-33.28,115.726,Australia
Penrith,-33.7511,150.6942,Australia
Echuca,-36.1333,144.75,Australia
Morwell,-38.2333,146.4,Australia
Port Lincoln,-34.7322,135.8586,Australia
Forster,-32.1806,152.5117,Australia
Mount Barker,-35.0667,138.85,Australia
Goonellabah,-28.8167,153.3167,Australia
Bongaree,-27.0813,153.1636,Australia
Emerald,-23.5208,148.1619,Australia
Sale,-38.1,147.0667,Australia
Rutherford,-32.715,151.5317,Australia
Jimboomba,-27.83,153.0313,Australia
Torquay,-38.3333,144.3167,Australia
Raymond Terrace,-32.7615,151.7441,Australia
Dalby,-27.1813,151.2661,Australia
Muswellbrook,-32.2654,150.8885,Australia
Warwick,-28.2152,152.0352,Australia
Drouin,-38.1333,145.85,Australia
Inverell,-29.7667,151.1167,Australia
Parkes,-33.133,148.176,Australia
Wallan,-37.4167,144.9833,Australia
Nambour,-26.6269,152.9591,Australia
Somerville,-38.226,145.177,Australia
Kingston,-42.9769,147.3083,Australia
Broome,-17.9619,122.2361,Australia
Casino,-28.8667,153.05,Australia
Mareeba,-16.9833,145.4167,Australia
Batemans Bay,-35.7081,150.1744,Australia
Gympie,-26.19,152.6655,Australia
Gracemere,-23.4391,150.4558,Australia
Grafton,-29.6833,152.9333,Australia
Nelson Bay,-32.715,152.1511,Australia
Young,-34.3,148.3,Australia
Bowral,-34.4792,150.4181,Australia
Nowra,-34.8808,150.6075,Australia
Swan Hill,-35.3333,143.55,Australia
Mount Evelyn,-37.783,145.385,Australia
Benalla,-36.5519,145.9817,Australia
Mudgee,-32.6125,149.5872,Australia
Cowra,-33.8183,148.6578,Australia
Kangaroo Flat,-36.7833,144.233,Australia
Hamilton,-37.7333,142.0167,Australia
Bowen,-20.0102,148.2416,Australia
Ballina,-28.8333,153.5333,Australia
Andergrove,-21.0931,149.186,Australia
Moree,-29.465,149.8344,Australia
Kingaroy,-26.5408,151.8394,Australia
Portland,-38.3333,141.6,Australia
Gunnedah,-30.9817,150.2511,Australia
Colac,-38.3403,143.5847,Australia
Leeton,-34.5667,146.4,Australia
Highfields,-27.4633,151.9458,Australia
Tweed Heads,-28.1833,153.55,Australia
Yanchep,-31.55,115.634,Australia
Currumbin,-28.158,153.469,Australia
Kelso,-33.4186,149.6056,Australia
Moss Vale,-34.55,150.3833,Australia
Mandurah,-32.5289,115.7231,Australia
Katoomba,-33.715,150.312,Australia
Gisborne,-37.49,144.5889,Australia
Wollert,-37.5833,145.0333,Australia
Ayr,-19.5744,147.4066,Australia
Ararat,-37.2833,142.9167,Australia
Charters Towers,-20.0765,146.2614,Australia
Moe,-38.1722,146.2678,Australia
Deniliquin,-35.5331,144.9667,Australia
Moranbah,-22.0016,148.0533,Australia
Forbes,-33.3817,148.0011,Australia
Redlynch,-16.8833,145.7,Australia
Maryborough,-37.05,143.735,Australia
Narrabri,-30.3317,149.7678,Australia
Bairnsdale,-37.8333,147.6167,Australia
Port Augusta,-32.4925,137.7658,Australia
Kiama,-34.6708,150.8542,Australia
Atherton,-17.2658,145.478,Australia
Seymour,-37.03,145.13,Australia
Newman,-23.3539,119.7319,Australia
Cooma,-36.2317,149.1178,Australia
Tumut,-35.3039,148.2233,Australia
Roma,-26.5733,148.7869,Australia
Yamba,-29.44,153.3594,Australia
Northam,-31.6531,116.6661,Australia
Stawell,-37.05,142.7667,Australia
Yeppoon,-23.1288,150.7444,Australia
Scone,-32.0483,150.8678,Australia
Goondiwindi,-28.5461,150.3097,Australia
Cobram,-35.9667,145.65,Australia
Queanbeyan,-35.3533,149.2342,Australia
Albury,-36.0806,146.9158,Australia
Lithgow,-33.4833,150.15,Australia
Richmond,-33.5983,150.7511,Australia
Biloela,-24.4002,150.5133,Australia
Byron Bay,-28.6483,153.6178,Australia
Singleton,-32.5667,151.1697,Australia
Wonthaggi,-38.6056,145.5917,Australia
Kununurra,-15.7736,128.7386,Australia
Berri,-34.2833,140.6,Australia
Victor Harbor,-35.55,138.6167,Australia
Lismore,-28.8167,153.2833,Australia
Ingham,-18.6508,146.1572,Australia
Smithton,-40.844,145.12,Australia
Narrogin,-32.936,117.178,Australia
Manjimup,-34.2411,116.1464,Australia
Merimbula,-36.8983,149.9011,Australia
Port Hedland,-20.31,118.6011,Australia
Weipa,-12.63,141.8786,Australia
Clare,-33.8333,138.6,Australia
Proserpine,-20.4016,148.5808,Australia
Wallaroo,-33.9167,137.6167,Australia
Katanning,-33.6908,117.5553,Australia
Port Douglas,-16.4834,145.4652,Australia
Charleville,-26.4016,146.2383,Australia
Bordertown,-36.3118,140.7702,Australia
Tom Price,-22.6939,117.795,Australia
Esperance,-33.8611,121.8919,Australia
Longreach,-23.4422,144.2491,Australia
Merredin,-31.482,118.279,Australia
Mount Barker,-34.63,117.6669,Australia
Cloncurry,-20.7047,140.5052,Australia
Scottsdale,-41.1667,147.5167,Australia
Bourke,-30.1,145.9333,Australia
Exmouth,-21.9331,114.1281,Australia
Queenstown,-42.0667,145.55,Australia
Tumby Bay,-34.3667,136.1,Australia
Rockhampton,-23.3781,150.5136,Australia
Maitland,-32.7167,151.55,Australia
Penola,-37.3786,140.8362,Australia
Innisfail,-17.5238,146.0311,Australia
Barcaldine,-23.5555,145.2888,Australia
Kingston South East,-36.8167,139.85,Australia
Gawler,-34.5981,138.745,Australia
Peterborough,-32.9667,138.8333,Australia
Streaky Bay,-32.8,134.2167,Australia
Kalbarri,-27.71,114.16,Australia
Ouyen,-35.0667,142.317,Australia
Halls Creek,-18.23,127.67,Australia
Port Denison,-29.275,114.9194,Australia
Wagin,-33.3167,117.35,Australia
Katherine,-14.4667,132.2667,Australia
Port Pirie,-33.1858,138.0169,Australia
Meningie,-35.6883,139.338,Australia
Hughenden,-20.8438,144.1986,Australia
Cowell,-33.6833,136.9167,Australia
Yulara,-25.2406,130.9889,Australia
Bicheno,-41.8667,148.2833,Australia
Roebourne,-20.7667,117.15,Australia
Winton,-22.3913,143.0381,Australia
Oatlands,-42.3,147.3706,Australia
Kempsey,-31.0833,152.8333,Australia
Gingin,-31.34,115.91,Australia
Wilcannia,-31.565,143.3678,Australia
Laverton,-28.628,122.403,Australia
Onslow,-21.6333,115.1167,Australia
Tamworth,-31.0833,150.9167,Australia
Leonora,-28.8845,121.3308,Australia
Wyndham,-15.4825,128.123,Australia
Eidsvold,-25.3667,151.1333,Australia
Pannawonica,-21.635,116.336,Australia
Meekatharra,-26.5931,118.4911,Australia
Southern Cross,-31.25,119.35,Australia
Three Springs,-29.5333,115.7617,Australia
Kimba,-33.1333,136.417,Australia
Richmond,-20.7305,143.1425,Australia
Theodore,-24.95,150.0833,Australia
Norseman,-32.1961,121.778,Australia
Karumba,-17.4838,140.8397,Australia
Morawa,-29.2111,116.009,Australia
Andamooka,-30.447,137.166,Australia
Ravensthorpe,-33.5831,120.049,Australia
Georgetown,-18.3,143.55,Australia
Mount Magnet,-28.06,117.846,Australia
Boulia,-22.9,139.9,Australia
Adelaide River,-13.2381,131.1061,Australia
Burketown,-17.7167,139.5667,Australia
Ivanhoe,-32.8983,144.3,Australia
Thargomindah,-28,143.8167,Australia
Pine Creek,-13.8231,131.833,Australia
Camooweal,-19.9167,138.117,Australia
Carnarvon,-24.8672,113.6611,Australia
Birdsville,-25.8989,139.352,Australia
Bedourie,-24.35,139.4667,Australia
Mount Isa,-20.7261,139.4938,Australia
Windorah,-25.4206,142.6547,Australia
Kingoonya,-30.9,135.3,Australia
McMinns Lagoon,-12.5329,131.05,Australia
Ceduna,-32.1167,133.6667,Australia
Quilpie,-26.6161,144.2675,Australia
Woomera,-31.1496,136.8,Australia
Vienna,48.2083,16.3725,Austria
Graz,47.0708,15.4386,Austria
Linz,48.3058,14.2864,Austria
Salzburg,47.8,13.045,Austria
Innsbruck,47.2683,11.3933,Austria
Klagenfurt,46.6167,14.3,Austria
Sankt Pölten,48.2,15.6167,Austria
Bregenz,47.505,9.7492,Austria
Mödling,48.0856,16.2831,Austria
Hall in Tirol,47.2833,11.5,Austria
Eisenstadt,47.85,16.5167,Austria
Villach,46.6167,13.8333,Austria
Wels,48.15,14.0167,Austria
Dornbirn,47.4167,9.75,Austria
Wiener Neustadt,47.8167,16.25,Austria
Steyr,48.0333,14.4167,Austria
Leonding,48.2792,14.2528,Austria
Klosterneuburg,48.3042,16.3167,Austria
Baden,48.0075,16.2344,Austria
Traun,48.2217,14.2397,Austria
Wolfsberg,46.8419,14.8408,Austria
Krems an der Donau,48.4167,15.6167,Austria
Leoben,47.3817,15.0972,Austria
Amstetten,48.1167,14.8667,Austria
Lustenau,47.4271,9.6711,Austria
Kapfenberg,47.4394,15.2894,Austria
Hallein,47.6667,13.0833,Austria
Kufstein,47.5833,12.1667,Austria
Traiskirchen,48.0189,16.2922,Austria
Schwechat,48.1411,16.4786,Austria
Stockerau,48.3858,16.2108,Austria
Braunau am Inn,48.2583,13.0333,Austria
Hohenems,47.3667,9.6667,Austria
Saalfelden am Steinernen Meer,47.4269,12.8483,Austria
Ansfelden,48.2083,14.2889,Austria
Telfs,47.3069,11.0722,Austria
Bruck an der Mur,47.4106,15.2686,Austria
Perchtoldsdorf,48.1167,16.2667,Austria
Spittal an der Drau,46.7917,13.4958,Austria
Bludenz,47.1533,9.8219,Austria
Ternitz,47.7167,16.0333,Austria
Wörgl,47.4831,12.0664,Austria
Schwaz,47.35,11.7,Austria
Feldkirchen,46.7236,14.0919,Austria
Korneuburg,48.3453,16.3331,Austria
Hard,47.4892,9.69,Austria
Bad Ischl,47.7115,13.6239,Austria
Marchtrenk,48.1917,14.1106,Austria
Feldbach,46.955,15.8883,Austria
Knittelfeld,47.215,14.8294,Austria
Neunkirchen,47.7269,16.0817,Austria
Brunn am Gebirge,48.1069,16.2842,Austria
Gmunden,47.9181,13.7994,Austria
Vöcklabruck,48.0086,13.6558,Austria
Sankt Veit an der Glan,46.7667,14.3603,Austria
Leibnitz,46.7831,15.545,Austria
Lienz,46.8297,12.7697,Austria
Rankweil,47.2667,9.65,Austria
Enns,48.2167,14.475,Austria
Weiz,47.2189,15.6253,Austria
Götzis,47.3342,9.6453,Austria
Bad Vöslau,47.9669,16.2144,Austria
Ried im Innkreis,48.21,13.4894,Austria
Groß-Enzersdorf,48.2,16.55,Austria
Gänserndorf,48.3406,16.7175,Austria
Hollabrunn,48.5667,16.0833,Austria
Deutschlandsberg,46.8161,15.215,Austria
Mistelbach,48.5667,16.5667,Austria
Gerasdorf bei Wien,48.295,16.4675,Austria
Waidhofen an der Ybbs,47.9596,14.7745,Austria
Sankt Johann im Pongau,47.35,13.2,Austria
Trofaiach,47.4261,15.0067,Austria
Ebreichsdorf,47.9611,16.4047,Austria
Gleisdorf,47.1039,15.7083,Austria
Völkermarkt,46.6622,14.6344,Austria
Wiener Neudorf,48.0856,16.3131,Austria
Zwettl,48.6033,15.1689,Austria
Lauterach,47.4772,9.7314,Austria
Strasshof an der Nordbahn,48.3194,16.6475,Austria
Bischofshofen,47.4172,13.2194,Austria
Imst,47.2394,10.7381,Austria
Maria Enzersdorf,48.1,16.2833,Austria
Köflach,47.0639,15.0889,Austria
Rum,47.2872,11.4581,Austria
Laakirchen,47.9828,13.8242,Austria
Judenburg,47.1725,14.6603,Austria
Sankt Andrä,46.7667,14.8167,Austria
Purkersdorf,48.2092,16.1792,Austria
Zell am See,47.3233,12.7981,Austria
Altmünster,47.9,13.7667,Austria
Guntramsdorf,48.0483,16.315,Austria
Voitsberg,47.0483,15.1503,Austria
Attnang-Puchheim,48.0167,13.7167,Austria
Sierning,48.0447,14.31,Austria
Sankt Johann in Tirol,47.5225,12.4256,Austria
Sankt Valentin,48.1747,14.5333,Austria
Berndorf,47.9428,16.1036,Austria
Velden am Wörthersee,46.6125,14.0419,Austria
Engerwitzdorf,48.3397,14.4256,Austria
Deutsch-Wagram,48.2994,16.5644,Austria
Mürzzuschlag,47.6075,15.6731,Austria
Stainz,46.8942,15.2639,Austria
Fürstenfeld,47.05,16.0833,Austria
Baku,40.3667,49.8352,Azerbaijan
Sumqay?t,40.5917,49.6397,Azerbaijan
G?nc?,40.6828,46.3606,Azerbaijan
A?cab?di,40.0528,47.4614,Azerbaijan
Ming?çevir,40.77,47.0489,Azerbaijan
X?rdalan,40.4486,49.7564,Azerbaijan
Naxç?van,39.2089,45.4122,Azerbaijan
?irvan,39.9323,48.9203,Azerbaijan
??ki,41.2,47.1667,Azerbaijan
Yevlax,40.6172,47.15,Azerbaijan
M.?. R?sulzad?,40.4344,49.8336,Azerbaijan
L?nk?ran,38.7536,48.8511,Azerbaijan
Bil?c?ri,40.4314,49.8081,Azerbaijan
Bin?q?di,40.4661,49.8278,Azerbaijan
??mkir,40.8297,46.0189,Azerbaijan
Xaçmaz,41.4708,48.8097,Azerbaijan
B?rd?,40.3744,47.1267,Azerbaijan
Göyçay,40.6531,47.7406,Azerbaijan
Qazax,41.0933,45.3661,Azerbaijan
Ke?l?,40.3978,49.8986,Azerbaijan
Zaqatala,41.6336,46.6433,Azerbaijan
?mi?li,39.8697,48.06,Azerbaijan
Sabirabad,40.0128,48.4789,Azerbaijan
Salyan,39.595,48.9792,Azerbaijan
A?da?,40.65,47.4761,Azerbaijan
Zabrat,40.4872,49.9525,Azerbaijan
C?lilabad,39.2089,48.4972,Azerbaijan
Göygöl,40.5905,46.3239,Azerbaijan
Sabunçu,40.4425,49.9481,Azerbaijan
Hac? Zeynalabdin,40.6233,49.5586,Azerbaijan
Bil?suvar,39.4583,48.545,Azerbaijan
Hac?qabul,40.0433,48.9356,Azerbaijan
Quba,41.3597,48.5125,Azerbaijan
?smay?ll?,40.79,48.1519,Azerbaijan
A?su,40.5692,48.4008,Azerbaijan
A?stafa,41.1189,45.4539,Azerbaijan
?hm?dli,40.3839,49.9475,Azerbaijan
Siy?z?n,41.0761,49.1139,Azerbaijan
Saatl?,39.9311,48.3697,Azerbaijan
Füzuli,39.6003,47.1431,Azerbaijan
Astara,38.4561,48.8786,Azerbaijan
Qusar,41.4264,48.4356,Azerbaijan
Balaxan?,40.4617,49.92,Azerbaijan
Kürd?mir,40.3383,48.1608,Azerbaijan
Masall?,39.0342,48.6656,Azerbaijan
Ucar,40.5183,47.6542,Azerbaijan
Neftçala,39.3586,49.2469,Azerbaijan
Tovuz,40.9922,45.6289,Azerbaijan
T?rt?r,40.345,46.9289,Azerbaijan
Culfa,38.9558,45.6308,Azerbaijan
Beyl?qan,39.7756,47.6186,Azerbaijan
Qax,41.4225,46.9242,Azerbaijan
Da?k?s?n,40.5244,46.1069,Azerbaijan
Ordubad,38.9081,46.0278,Azerbaijan
Naftalan,40.5067,46.825,Azerbaijan
Samux,40.77,46.4111,Azerbaijan
G?d?b?y,40.5656,45.8161,Azerbaijan
Z?rdab,40.2183,47.7083,Azerbaijan
Balak?n,41.7258,46.4083,Azerbaijan
Yard?ml?,38.9206,48.2372,Azerbaijan
Goranboy,40.6103,46.7897,Azerbaijan
Lerik,38.7753,48.4153,Azerbaijan
K?lb?c?r,40.1067,46.0383,Azerbaijan
O?uz,41.0708,47.4583,Azerbaijan
C?bray?l,39.4,47.0261,Azerbaijan
Xocav?nd,39.7953,47.1131,Azerbaijan
Bab?k,39.1519,45.4417,Azerbaijan
Q?vraq,39.3997,45.1131,Azerbaijan
?u?a,39.7583,46.7483,Azerbaijan
Qobustan,40.5367,48.9328,Azerbaijan
A?dam,39.9833,46.9167,Azerbaijan
?ahbuz,39.4072,45.5739,Azerbaijan
Laç?n,39.6408,46.5469,Azerbaijan
Heyd?rabad,39.7203,44.8531,Azerbaijan
X?z?,40.9078,49.0733,Azerbaijan
Xocal?,39.9111,46.7892,Azerbaijan
Qubadl?,39.3439,46.5797,Azerbaijan
??rur,39.5544,44.9826,Azerbaijan
Q?b?l?,40.9825,47.8491,Azerbaijan
D?v?çi,41.2012,48.9871,Azerbaijan
Qaraçuxur,40.3967,49.9736,Azerbaijan
Hövsan,40.3744,50.0853,Azerbaijan
Bak?xanov,40.4217,49.9644,Azerbaijan
?atrovka,39.9319,48.9203,Azerbaijan
Xank?ndi,39.8153,46.7519,Azerbaijan
Ma?ta?a,40.5328,50.0039,Azerbaijan
Q?zyan,39.2914,46.6689,Azerbaijan
Lökbatan,40.3272,49.73,Azerbaijan
Buzovna,40.5161,50.1164,Azerbaijan
?mircan,40.4264,49.9836,Azerbaijan
A?a?? Göyc?li,41.1158,45.4853,Azerbaijan
Bin?,40.4539,50.0764,Azerbaijan
M?rd?kan,40.4922,50.1389,Azerbaijan
?amax?,40.6303,48.6414,Azerbaijan
Sahil,40.22,49.5714,Azerbaijan
Yeni Suraxan?,40.4311,50.0361,Azerbaijan
Hindarx,40.07,47.2047,Azerbaijan
Qazyan,40.4425,47.6767,Azerbaijan
?rkivan,39.0183,48.65,Azerbaijan
?üv?lan,40.4889,50.2069,Azerbaijan
Qobustan,40.0842,49.4158,Azerbaijan
Corat,40.5725,49.7064,Azerbaijan
Nehr?m,39.1122,45.4611,Azerbaijan
Pirallah?,40.4708,50.3217,Azerbaijan
Ba? Göynük,41.3228,47.1133,Azerbaijan
Qazmalar,40.9814,47.8458,Azerbaijan
Quzanl?,40.16,47.1722,Azerbaijan
?l?t,39.9411,49.4061,Azerbaijan
Liman,38.8733,48.8139,Azerbaijan
Zir?,40.3636,50.2903,Azerbaijan
Xudat,41.6281,48.6828,Azerbaijan
Saray,40.5322,49.7164,Azerbaijan
A?a?? Ay?bl?,40.9368,45.8258,Azerbaijan
?liabad,41.4783,46.6175,Azerbaijan
Türkan,40.3639,50.215,Azerbaijan
Qovlar,40.9419,45.7358,Azerbaijan
Göyt?p?,39.1167,48.5953,Azerbaijan
S?d?r?k,39.7175,44.8764,Azerbaijan
V?ndam,40.9447,47.9411,Azerbaijan
Q?z?lhac?l?,40.5808,46.8503,Azerbaijan
A?a?? Qu?çu,40.9533,45.6792,Azerbaijan
A?dam,40.9053,45.5564,Azerbaijan
Manama,26.225,50.5775,Bahrain
Al Mu?arraq,26.25,50.6167,Bahrain
Jidd ?af?,26.219,50.538,Bahrain
Mad?nat ?amad,26.1128,50.5139,Bahrain
Mad?nat ‘?sá,26.1736,50.5478,Bahrain
Sitrah,26.12,50.65,Bahrain
Al Hamalah,26.1497,50.4653,Bahrain
Ad Dir?z,26.2186,50.4756,Bahrain
Al M?lik?yah,26.1008,50.4878,Bahrain
Karr?nah,26.2306,50.5108,Bahrain
Dhaka,23.7639,90.3889,Bangladesh
Chattogram,22.335,91.8325,Bangladesh
N?r?yanganj,23.62,90.5,Bangladesh
Khulna,22.8167,89.55,Bangladesh
G?zipura,23.9889,90.375,Bangladesh
Rangapukur,25.56,89.25,Bangladesh
R?jsh?hi,24.3667,88.6,Bangladesh
Mymensingh,24.7539,90.4031,Bangladesh
Far?dpur,23.602,89.833,Bangladesh
Sylhet,24.9,91.8667,Bangladesh
Barura,23.375,91.0583,Bangladesh
Chauddagram,23.2283,91.3133,Bangladesh
Kushtia,23.9101,89.1231,Bangladesh
Bogra,24.85,89.3667,Bangladesh
T?ng?il,24.2644,89.9181,Bangladesh
Tungi,23.9,90.41,Bangladesh
Comilla,23.45,91.2,Bangladesh
Rangpur,25.75,89.2444,Bangladesh
Companiganj,22.875,91.2833,Bangladesh
Din?jpur,25.6167,88.65,Bangladesh
Br?hmanb?ria,23.9656,91.108,Bangladesh
Siddhirganj,23.6833,90.5167,Bangladesh
Feni,23.0183,91.41,Bangladesh
Jhenida,23.5417,89.1833,Bangladesh
Jessore,23.1704,89.2,Bangladesh
B?nchp?r,23.2,90.8,Bangladesh
Saidpur,25.8004,89,Bangladesh
Nazipur,25.0415,88.7605,Bangladesh
Barishal,22.7,90.3667,Bangladesh
Cox’s B?z?r,21.4272,92.005,Bangladesh
Chu?d?nga,23.644,88.8556,Bangladesh
S?tkhira,22.7188,89.0713,Bangladesh
Narsingdi,23.9167,90.7167,Bangladesh
P?bna,24.0167,89.2167,Bangladesh
Sir?jganj,24.45,89.75,Bangladesh
Jam?lpur,24.9004,89.95,Bangladesh
Brahmanpara,23.6167,91.1083,Bangladesh
Naogaon,24.8,88.9333,Bangladesh
Bh?nd?ria,22.4883,90.0733,Bangladesh
Naw?bganj,24.6,88.2667,Bangladesh
Maijdi,22.8333,91.1,Bangladesh
Sr?pur,24.2011,90.4843,Bangladesh
Saidpur,25.7781,88.8975,Bangladesh
Fulg?zi,23.1333,91.4333,Bangladesh
Netrakona,24.8819,90.7275,Bangladesh
Bhola,22.6863,90.6461,Bangladesh
Patuakh?li,22.3542,90.3181,Bangladesh
Lalmanirhat,25.9167,89.45,Bangladesh
Raharpur,24.8194,88.325,Bangladesh
Elenga,24.3386,89.9219,Bangladesh
Mukt?g?cha,24.7662,90.2562,Bangladesh
Sherpur,24.665,89.419,Bangladesh
Gop?lpur,24.5583,89.9167,Bangladesh
Bh?rella,23.5506,91.0566,Bangladesh
K?lih?ti,24.3833,89.9833,Bangladesh
D?ganbhuiya,22.9127,91.3181,Bangladesh
Barguna,22.15,90.1167,Bangladesh
Loh?g?ra,22.0181,92.0974,Bangladesh
Mirz?pur,24.1083,90.0917,Bangladesh
Daulatkh?n,22.6,90.7472,Bangladesh
Phulpur,24.955,90.3573,Bangladesh
Son?g?zi,22.8492,91.3928,Bangladesh
Latifpur,22.3777,91.7639,Bangladesh
Goalundo Gh?t,23.7333,89.7617,Bangladesh
Habiganj,24.3808,91.4144,Bangladesh
Kaukh?li,22.6333,90.0667,Bangladesh
Gaibandha,25.329,89.5415,Bangladesh
Arankhola,24.661,90.0884,Bangladesh
Chh?galn?iya,23.0395,91.5146,Bangladesh
Char Fasson,22.1861,90.7597,Bangladesh
Maulavi B?z?r,24.4808,91.7644,Bangladesh
Dohaz?ri,22.1628,92.0728,Bangladesh
Nakhyaungchar?p?ra,21.4167,92.1833,Bangladesh
S?t?kund,22.62,91.66,Bangladesh
Kishmat Dhanb?ri,24.6167,90.025,Bangladesh
Chandanais,22.2,92.0083,Bangladesh
Hatibanda,24.2105,90.1492,Bangladesh
Nagdha Simla,24.6143,89.9166,Bangladesh
N?lchiti,22.635,90.27,Bangladesh
Majidpur,23.5796,90.7689,Bangladesh
Sakhipur,24.3167,90.175,Bangladesh
Parsuram,23.2135,91.4447,Bangladesh
Mathba,22.3,89.95,Bangladesh
Duptiair,23.991,89.7982,Bangladesh
Panchari Bazar,23.29,91.9,Bangladesh
Lakshm?char?p?ra,22.79,91.9,Bangladesh
Sh?hb?zpur,24.0531,91.1719,Bangladesh
Amtali,22.137,90.228,Bangladesh
M?nikganj,23.85,90.0167,Bangladesh
Jagatpur,23.6048,90.7628,Bangladesh
Harin?kunda,23.65,89.0333,Bangladesh
Latifpur,24.1181,90.1478,Bangladesh
B?is?ri,22.79,90.1313,Bangladesh
Dhubaria,24.0044,89.8484,Bangladesh
Farad?b?d,23.7445,90.8772,Bangladesh
Bridgetown,13.0975,-59.6167,Barbados
Minsk,53.9,27.5667,Belarus
Homyel’,52.4453,30.9842,Belarus
Vitsyebsk,55.1917,30.2056,Belarus
Mahilyow,53.9167,30.35,Belarus
Hrodna,53.6667,23.8333,Belarus
Brest,52.1347,23.6569,Belarus
Babruysk,53.15,29.2333,Belarus
Baranavichy,53.1333,26.0167,Belarus
Horad Barysaw,54.2279,28.505,Belarus
Pinsk,52.1153,26.1031,Belarus
Orsha,54.5092,30.4258,Belarus
Navapolatsk,55.5333,28.65,Belarus
Salihorsk,52.8,27.5333,Belarus
Mazyr,52.05,29.2667,Belarus
Lida,53.8833,25.3,Belarus
Horad Zhodzina,54.1,28.35,Belarus
Maladzyechna,54.3208,26.8572,Belarus
Polatsk,55.4833,28.8,Belarus
Zhlobin,52.9,30.0333,Belarus
Rechytsa,52.3639,30.3947,Belarus
Svyetlahorsk,52.6333,29.7333,Belarus
Slutsk,53.0333,27.5667,Belarus
Kobryn,52.2167,24.3667,Belarus
Slonim,53.0833,25.3167,Belarus
Vawkavysk,53.1667,24.4667,Belarus
Kalinkavichy,52.125,29.3333,Belarus
Smarhon’,54.4836,26.4,Belarus
Rahachow,53.1,30.05,Belarus
Horki,54.2667,30.9833,Belarus
Asipovichy,53.2933,28.4756,Belarus
Dzyarzhynsk,53.6833,27.1333,Belarus
Byaroza,52.55,24.9667,Belarus
Navahrudak,53.5833,25.8167,Belarus
Vilyeyka,54.498,26.926,Belarus
Krychaw,53.7194,31.7139,Belarus
Luninyets,52.25,26.8,Belarus
Ivatsevichy,52.7167,25.3333,Belarus
Mar’’ina Horka,53.5167,28.1417,Belarus
Pastavy,55.1167,26.8333,Belarus
Pruzhany,52.5567,24.4644,Belarus
Dobrush,52.4167,31.3167,Belarus
Hlybokaye,55.1333,27.6833,Belarus
Zaslawye,54.0083,27.2847,Belarus
Fanipal,53.75,27.3333,Belarus
Stowbtsy,53.4833,26.7333,Belarus
Lyepyel,54.875,28.6944,Belarus
Shklow,54.2236,30.2864,Belarus
Bykhaw,53.5167,30.25,Belarus
Ashmyany,54.425,25.9375,Belarus
Horad Smalyavichy,54.1,28.0667,Belarus
Zhytkavichy,52.2333,27.8667,Belarus
Ivanava,52.1333,25.55,Belarus
Kastsyukovichy,53.3333,32.05,Belarus
Shchuchyn,53.6167,24.7333,Belarus
Lahoysk,54.2,27.85,Belarus
Klimavichy,53.6167,31.95,Belarus
Masty,53.417,24.55,Belarus
Drahichyn,52.1833,25.15,Belarus
Astravyets,54.6136,25.9553,Belarus
Zhabinka,52.2006,24.0233,Belarus
Nyasvizh,53.2167,26.6667,Belarus
Hantsavichy,52.75,26.4333,Belarus
Khoyniki,51.8892,29.9644,Belarus
Stolin,51.8833,26.85,Belarus
Malaryta,51.7833,24.0833,Belarus
Mikashevichy,52.2203,27.4736,Belarus
Novalukoml,54.6569,29.15,Belarus
Haradok,55.4667,30,Belarus
Lyuban,52.7819,28.0525,Belarus
Klyetsk,53.0636,26.6372,Belarus
Byerazino,53.8333,28.9833,Belarus
Staryya Darohi,53.0394,28.265,Belarus
Byelaazyorsk,52.45,25.1667,Belarus
Lyakhavichy,53.0333,26.2667,Belarus
Uzda,53.4661,27.2244,Belarus
Chavusy,53.8075,30.9714,Belarus
Baran,54.4833,30.3333,Belarus
Kapyl,53.15,27.0917,Belarus
Mstsislaw,54.0167,31.7167,Belarus
Skidal’,53.5861,24.2519,Belarus
Byarozawka,53.7167,25.5,Belarus
Pyetrykaw,52.1333,28.5,Belarus
Valozhyn,54.0833,26.5167,Belarus
Byalynichy,53.9956,29.7096,Belarus
Talachyn,54.4167,29.7,Belarus
Braslaw,55.6391,27.0318,Belarus
Yel’sk,51.8167,29.15,Belarus
Buda-Kashalyova,52.7167,30.5667,Belarus
Chachersk,52.9161,30.9161,Belarus
Krupki,54.3167,29.1333,Belarus
Vyetka,52.5667,31.1833,Belarus
Chervyen,53.7078,28.4322,Belarus
Brussels,50.8467,4.3525,Belgium
Antwerp,51.2178,4.4003,Belgium
Gent,51.0536,3.7253,Belgium
Charleroi,50.4,4.4333,Belgium
Liège,50.6397,5.5706,Belgium
Anderlecht,50.8333,4.3333,Belgium
Bruges,51.2089,3.2242,Belgium
Namur,50.4667,4.8667,Belgium
Moortebeek,50.8547,4.3386,Belgium
Leuven,50.8833,4.7,Belgium
Mechelen,51.0278,4.4806,Belgium
Deurne,51.2247,4.4625,Belgium
Laeken,50.8778,4.3558,Belgium
Forest,50.8131,4.3247,Belgium
Etterbeek,50.8333,4.3833,Belgium
Jette,50.8667,4.3333,Belgium
Evere,50.8667,4.4,Belgium
Merksem,51.2428,4.4414,Belgium
Borgerhout,51.2117,4.4407,Belgium
Vilvoorde,50.9281,4.4245,Belgium
Berchem,51.1833,4.4167,Belgium
Hoboken,51.1667,4.3667,Belgium
Wilrijk,51.1667,4.3833,Belgium
Koekelberg,50.8667,4.3333,Belgium
Sint-Joost-ten-Node,50.85,4.3833,Belgium
Ganshoren,50.8667,4.3167,Belgium
Mortsel,51.1667,4.4667,Belgium
Saint-Nicolas,50.6333,5.5333,Belgium
Sint-Amandsberg,51.0539,3.7492,Belgium
Ekeren,51.2833,4.4167,Belgium
Edegem,51.15,4.45,Belgium
Assebroek,51.2,3.25,Belgium
Boom,51.0833,4.3667,Belgium
Neder-Over-Heembeek,50.9,4.3833,Belgium
Wondelgem,51.0889,3.7131,Belgium
Mariakerke,51.0728,3.6761,Belgium
Wezembeek-Oppem,50.8333,4.5,Belgium
Kraainem,50.8619,4.4572,Belgium
Hemiksem,51.15,4.35,Belgium
Borsbeek,51.2,4.4833,Belgium
Mons,50.45,3.95,Belgium
Aalst,50.9383,4.0392,Belgium
La Louvière,50.4667,4.1833,Belgium
Sint-Niklaas,51.1667,4.1333,Belgium
Kortrijk,50.8333,3.2667,Belgium
Hasselt,50.9305,5.3385,Belgium
Ostend,51.2258,2.9194,Belgium
Tournai,50.6056,3.3881,Belgium
Genk,50.9662,5.5021,Belgium
Seraing,50.5833,5.5,Belgium
Roeselare,50.9447,3.1233,Belgium
Mouscron,50.7333,3.2167,Belgium
Verviers,50.5833,5.85,Belgium
Beveren,51.2,4.25,Belgium
Beringen,51.0333,5.2167,Belgium
Dendermonde,51.0333,4.1,Belgium
Turnhout,51.3167,4.95,Belgium
Deinze,50.9833,3.5333,Belgium
Dilbeek,50.8333,4.25,Belgium
Heist-op-den-Berg,51.0833,4.7167,Belgium
Lokeren,51.1,3.9833,Belgium
Herstal,50.6667,5.6333,Belgium
Geel,51.1667,5,Belgium
Sint-Truiden,50.8167,5.1833,Belgium
Braine-l’Alleud,50.6806,4.3717,Belgium
Ninove,50.8333,4.0167,Belgium
Halle,50.7361,4.2372,Belgium
Brasschaat,51.2931,4.4894,Belgium
Waregem,50.8811,3.4001,Belgium
Mechelen-aan-de-Maas,50.9967,5.7025,Belgium
Grimbergen,50.9333,4.3833,Belgium
Châtelet,50.4,4.5167,Belgium
Lierre,51.1333,4.5667,Belgium
Mol,51.1833,5.1167,Belgium
Zaventem,50.8833,4.4667,Belgium
Evergem,51.0167,3.7,Belgium
Schoten,51.25,4.5,Belgium
Ieper,50.8508,2.885,Belgium
Tienen,50.8,4.9333,Belgium
Wavre,50.7167,4.6,Belgium
Menen,50.7956,3.1217,Belgium
Sint-Pieters-Leeuw,50.7833,4.25,Belgium
Lommel,51.2333,5.3167,Belgium
Binche,50.4,4.1667,Belgium
Geraardsbergen,50.7667,3.8667,Belgium
Asse,50.9,4.2,Belgium
Knokke-Heist,51.3414,3.2869,Belgium
Bilzen,50.8667,5.5167,Belgium
Oudenaarde,50.85,3.6,Belgium
Wevelgem,50.8081,3.1839,Belgium
Courcelles,50.4578,4.3756,Belgium
Louvain-la-Neuve,50.6667,4.5,Belgium
Waterloo,50.7167,4.3833,Belgium
Tongeren,50.7794,5.4631,Belgium
Aarschot,50.9842,4.8333,Belgium
Temse,51.1167,4.2,Belgium
Arlon,49.6833,5.8167,Belgium
Izegem,50.9172,3.215,Belgium
Brecht,51.35,4.6333,Belgium
Ans,50.6625,5.52,Belgium
Ath,50.6167,3.7667,Belgium
Nivelles,50.5833,4.3167,Belgium
Herentals,51.1833,4.8333,Belgium
Harelbeke,50.8567,3.3131,Belgium
Andenne,50.4833,5.1,Belgium
Soignies,50.5667,4.0667,Belgium
Kapellen,51.3167,4.4333,Belgium
Ronse,50.75,3.6,Belgium
Willebroek,51.0667,4.3667,Belgium
Flémalle-Haute,50.6011,5.4628,Belgium
Zottegem,50.8667,3.8,Belgium
Tubize,50.693,4.2047,Belgium
Lanaken,50.8925,5.6497,Belgium
Gembloux,50.5667,4.6833,Belgium
Wetteren,51,3.8833,Belgium
Oupeye,50.7083,5.6431,Belgium
Beersel,50.7631,4.3086,Belgium
Overijse,50.7833,4.5333,Belgium
Maaseik,51.1019,5.7856,Belgium
Hamme,51.0833,4.1333,Belgium
Westerlo,51.0833,4.9167,Belgium
Merelbeke,51,3.75,Belgium
Zwevegem,50.8,3.3333,Belgium
Manage,50.5,4.2333,Belgium
Diest,50.9847,5.0514,Belgium
Maldegem,51.2,3.4333,Belgium
Oostkamp,51.1544,3.2353,Belgium
Zemst,50.9722,4.4222,Belgium
Saint-Ghislain,50.45,3.8167,Belgium
Nijlen,51.1667,4.65,Belgium
Scherpenheuvel,51.0103,4.9728,Belgium
Balen,51.1667,5.15,Belgium
Fleurus,50.4833,4.5333,Belgium
Zedelgem,51.1431,3.1361,Belgium
Tervuren,50.8167,4.5,Belgium
Rixensart,50.7167,4.5333,Belgium
Frameries,50.4088,3.8906,Belgium
Lochristi,51.1,3.8333,Belgium
Braine-le-Comte,50.6,4.1333,Belgium
Koksijde,51.1,2.65,Belgium
Zoersel,51.2667,4.7,Belgium
Herent,50.9081,4.6706,Belgium
Colfontaine,50.4057,3.8514,Belgium
Kontich,51.1333,4.45,Belgium
Bornem,51.1,4.2333,Belgium
Chaudfontaine,50.5833,5.6333,Belgium
Zonhoven,50.9853,5.3647,Belgium
Huy,50.5167,5.2333,Belgium
Hoogstraten,51.4,4.7667,Belgium
Zele,51.0667,4.0333,Belgium
Eeklo,51.1858,3.5639,Belgium
Denderleeuw,50.8833,4.0833,Belgium
Blankenberge,51.3,3.1167,Belgium
Sint-Katelijne-Waver,51.0667,4.5333,Belgium
Torhout,51.0661,3.1014,Belgium
Wuustwezel,51.3833,4.6,Belgium
Boussu,50.4331,3.7961,Belgium
Kortenberg,50.8833,4.5333,Belgium
Tielt,50.9989,3.3258,Belgium
Sint-Andries,51.2,3.1833,Belgium
Quaregnon,50.4333,3.8667,Belgium
Schilde,51.2333,4.5667,Belgium
Zwijndrecht,51.2167,4.3333,Belgium
Morlanwelz-Mariemont,50.45,4.2333,Belgium
Poperinge,50.8547,2.7256,Belgium
Lebbeke,51,4.1167,Belgium
Meise,50.9333,4.3333,Belgium
Eupen,50.6333,6.0333,Belgium
Ranst,51.2,4.55,Belgium
Middelkerke,51.1847,2.8192,Belgium
Sint-Gillis-Waas,51.2167,4.1167,Belgium
Diepenbeek,50.9072,5.4175,Belgium
Essen,51.4667,4.4667,Belgium
Wervik,50.7797,3.04,Belgium
Stabroek,51.3333,4.3667,Belgium
Lede,50.9667,3.9833,Belgium
Bredene,51.2336,2.9756,Belgium
Kalmthout,51.3833,4.4667,Belgium
Kasterlee,51.25,4.95,Belgium
Londerzeel,51,4.3,Belgium
Sint-Genesius-Rode,50.745,4.3464,Belgium
Haaltert,50.9,4,Belgium
Tessenderlo,51.0697,5.0897,Belgium
Lessines,50.7167,3.8333,Belgium
Stekene,51.2,4.0333,Belgium
Destelbergen,51.05,3.8,Belgium
Beerse,51.3167,4.8667,Belgium
Walcourt,50.25,4.4167,Belgium
Duffel,51.1,4.5167,Belgium
Fontaine-l’Évêque,50.4167,4.3167,Belgium
Visé,50.7333,5.7,Belgium
Wemmel,50.9167,4.3,Belgium
Herzele,50.8833,3.8833,Belgium
Putte,51.05,4.6333,Belgium
Puurs,51.0761,4.2803,Belgium
Herve,50.6333,5.8,Belgium
Fléron,50.6167,5.6833,Belgium
Marche-en-Famenne,50.2167,5.3333,Belgium
Pont-à-Celles,50.5,4.35,Belgium
Neerpelt,51.2333,5.4333,Belgium
Soumagne,50.6167,5.75,Belgium
Péruwelz,50.5167,3.5833,Belgium
Aubange,49.5667,5.805,Belgium
Dour,50.3979,3.7807,Belgium
Kruibeke,51.1667,4.3,Belgium
Rotselaar,50.9511,4.7108,Belgium
Sint-Kruis,51.2117,3.25,Belgium
Riemst,50.8089,5.6019,Belgium
Diksmuide,51.0333,2.8667,Belgium
Lille,51.2333,4.8333,Belgium
Machelen,50.9103,4.4367,Belgium
Merchtem,50.9667,4.2333,Belgium
Hannut,50.6667,5.0833,Belgium
Peer,51.1328,5.4536,Belgium
Bree,51.1333,5.5833,Belgium
Ciney,50.3,5.1,Belgium
Dison,50.6167,5.85,Belgium
Bissegem,50.8167,3.2167,Belgium
Éghezée,50.5833,4.9167,Belgium
Leopoldsburg,51.1169,5.2558,Belgium
Landen,50.7547,5.0814,Belgium
Zulte,50.9167,3.4333,Belgium
Ternat,50.8667,4.1833,Belgium
Bastogne,50.0042,5.72,Belgium
Beernem,51.1428,3.3408,Belgium
Rumst,51.0833,4.4167,Belgium
Overpelt,51.2167,5.4167,Belgium
Aartselaar,51.1333,4.3833,Belgium
Chapelle-lez-Herlaimont,50.4667,4.2833,Belgium
Waremme,50.6975,5.2556,Belgium
Bonheiden,51.0333,4.5333,Belgium
Tremelo,50.9911,4.7044,Belgium
Genappe,50.6,4.45,Belgium
Berlare,51.025,4.0025,Belgium
Opwijk,50.9667,4.1833,Belgium
Buggenhout,51,4.2,Belgium
Lummen,50.9833,5.2,Belgium
Ravels,51.3667,5,Belgium
Anzegem,50.8336,3.4783,Belgium
Thuin,50.3333,4.2833,Belgium
Sprimont,50.5,5.6667,Belgium
Amay,50.5478,5.3192,Belgium
Herselt,51.05,4.8833,Belgium
Haacht,50.9767,4.6372,Belgium
Lubbeek,50.8817,4.8414,Belgium
Kuurne,50.8519,3.2861,Belgium
Liedekerke,50.8667,4.0833,Belgium
Wingene,51.05,3.2667,Belgium
Assenede,51.2333,3.75,Belgium
Oud-Turnhout,51.3167,4.9833,Belgium
Jodoigne,50.7167,4.8667,Belgium
Beloeil,50.5333,3.7167,Belgium
Ichtegem,51.1,3,Belgium
Jabbeke,51.1833,3.1,Belgium
Sint-Gillis-bij-Dendermonde,51.0189,4.1058,Belgium
Enghien,50.7,4.0333,Belgium
Boechout,51.15,4.4833,Belgium
Oostakker,51.1,3.7667,Belgium
Wanze,50.5353,5.2133,Belgium
Wommelgem,51.2,4.5167,Belgium
Oosterzele,50.95,3.8,Belgium
Couvin,50.05,4.4833,Belgium
Blegny,50.6667,5.7333,Belgium
Dinant,50.2667,4.9167,Belgium
Beyne-Heusay,50.6167,5.65,Belgium
Zelzate,51.2,3.8167,Belgium
Grez-Doiceau,50.7333,4.7,Belgium
Arendonk,51.3167,5.0833,Belgium
Keerbergen,51.0031,4.6311,Belgium
Sint-Michiels,51.1833,3.2167,Belgium
Zandhoven,51.2167,4.65,Belgium
Bocholt,51.1722,5.5794,Belgium
Esneux,50.5333,5.5667,Belgium
Gavere,50.9333,3.6667,Belgium
Mettet,50.3192,4.6569,Belgium
Olen,51.15,4.85,Belgium
Boortmeerbeek,50.9833,4.5667,Belgium
Anderlues,50.408,4.2696,Belgium
Herk-de-Stad,50.9406,5.1672,Belgium
De Haan,51.2731,3.0336,Belgium
Gerpinnes,50.3369,4.5283,Belgium
Laarne,51.0167,3.85,Belgium
Strombeek-Bever,50.91,4.35,Belgium
Kortemark,51.0286,3.0444,Belgium
Malmédy,50.4167,6.0167,Belgium
Drongen,51.05,3.6667,Belgium
Rochefort,50.1667,5.2167,Belgium
Zonnebeke,50.8667,2.9833,Belgium
Steenokkerzeel,50.9189,4.5083,Belgium
Paal,51.0392,5.1728,Belgium
Aywaille,50.4733,5.6739,Belgium
Niel,51.1167,4.3333,Belgium
Deerlijk,50.8533,3.3533,Belgium
Kinrooi,51.145,5.7403,Belgium
Profondeville,50.3769,4.87,Belgium
Veurne,51.0722,2.6622,Belgium
Nevele,51.0333,3.55,Belgium
Gistel,51.1561,2.9672,Belgium
Melle,51,3.8,Belgium
Farciennes,50.4313,4.5476,Belgium
Kampenhout,50.9413,4.5496,Belgium
Rijkevorsel,51.35,4.7667,Belgium
Alken,50.8761,5.3078,Belgium
Theux,50.5349,5.8134,Belgium
Bernissart,50.4833,3.65,Belgium
Berlaar,51.1167,4.65,Belgium
Vosselaar,51.3167,4.8833,Belgium
Wichelen,51,3.9667,Belgium
Chaumont-Gistoux,50.6839,4.6947,Belgium
Nieuwpoort,51.1167,2.75,Belgium
Hoeilaart,50.7667,4.4667,Belgium
Durbuy,50.3522,5.4563,Belgium
Melsele,51.2209,4.2815,Belgium
La Calamine,50.7,6,Belgium
De Pinte,51,3.65,Belgium
Staden,50.975,3.0147,Belgium
Ingelmunster,50.9208,3.2533,Belgium
De Panne,51.1019,2.5917,Belgium
Grobbendonk,51.2,4.7167,Belgium
Florennes,50.2514,4.6044,Belgium
Retie,51.2667,5.0667,Belgium
Oud-Heverlee,50.8333,4.6667,Belgium
Écaussinnes-Lalaing,50.5667,4.1833,Belgium
Seneffe,50.5333,4.25,Belgium
Virton,49.5675,5.5325,Belgium
Heule,50.8333,3.2333,Belgium
Moorslede,50.8906,3.0628,Belgium
Meulebeke,50.9497,3.2869,Belgium
Damme,51.25,3.2833,Belgium
Waasmunster,51.1097,4.0847,Belgium
Hulshout,51.0833,4.7833,Belgium
Ertvelde,51.1783,3.7447,Belgium
Wijnegem,51.2333,4.5333,Belgium
Villers-la-Ville,50.5833,4.5333,Belgium
Braine-le-Château,50.6833,4.2667,Belgium
Borgloon,50.8022,5.3433,Belgium
Court-Saint-Étienne,50.6333,4.5667,Belgium
Raeren,50.6833,6.1167,Belgium
Montignies-le-Tilleul,50.3833,4.3833,Belgium
Estaimpuis,50.6756,3.2758,Belgium
Opglabbeek,51.05,5.5833,Belgium
Sint-Lievens-Houtem,50.9167,3.8667,Belgium
Spa,50.4925,5.8642,Belgium
Begijnendijk,51.0186,4.785,Belgium
Meerhout,51.1333,5.0833,Belgium
Jurbise,50.5333,3.9333,Belgium
Plombières,50.7333,5.95,Belgium
Avelgem,50.7753,3.4442,Belgium
Welkenraedt,50.6606,5.9714,Belgium
Bertem,50.85,4.6167,Belgium
Bierbeek,50.8333,4.7667,Belgium
Hooglede,50.9781,3.0817,Belgium
Houthulst,50.9783,2.9506,Belgium
Lint,51.1167,4.4833,Belgium
Erquelinnes,50.3101,4.1219,Belgium
Holsbeek,50.9167,4.7667,Belgium
Pepinster,50.5667,5.8167,Belgium
Huldenberg,50.7833,4.5833,Belgium
Ledegem,50.8531,3.1267,Belgium
Lovendegem,51.1,3.6,Belgium
Wielsbeke,50.9089,3.3697,Belgium
Kapelle-op-den-Bos,51.0167,4.3667,Belgium
Hoeselt,50.85,5.4833,Belgium
Oudenburg,51.1833,3,Belgium
Dessel,51.2333,5.1167,Belgium
Chimay,50.05,4.3167,Belgium
Saint-Vith,50.2833,6.1333,Belgium
Halen,50.9481,5.1144,Belgium
Awans,50.6669,5.4633,Belgium
Juprelle,50.7167,5.5333,Belgium
Herenthout,51.15,4.7667,Belgium
Perwez,50.6241,4.815,Belgium
Gooik,50.8,4.1167,Belgium
La Bruyère,50.5,4.8,Belgium
Yvoir,50.3333,4.8833,Belgium
Sint-Martens-Lennik,50.8,4.15,Belgium
Heusden,51.0281,3.8,Belgium
Philippeville,50.2,4.55,Belgium
Ardooie,50.9667,3.1833,Belgium
Bassenge,50.7586,5.6086,Belgium
Beauraing,50.1092,4.9567,Belgium
Lichtervelde,51.0333,3.1333,Belgium
Koekelare,51.0906,2.9803,Belgium
Galmaarden,50.75,3.9667,Belgium
Sint-Job-in-’t-Goor,51.3,4.5667,Belgium
Bertrix,49.8542,5.2533,Belgium
Merksplas,51.3667,4.8667,Belgium
Jalhay,50.5572,5.9642,Belgium
Belmopan,17.2514,-88.7669,Belize
Belize City,17.4986,-88.1886,Belize
Orange Walk,18.075,-88.5583,Belize
San Ignacio,17.1588,-89.0696,Belize
Dangriga,16.9667,-88.2167,Belize
Corozal,18.4,-88.4,Belize
Punta Gorda,16.1005,-88.8074,Belize
San Pedro,17.9214,-87.9611,Belize
Cotonou,6.3667,2.4333,Benin
Porto-Novo,6.4972,2.605,Benin
Abomey-Calavi,6.4486,2.3556,Benin
Godomè,6.3667,2.35,Benin
Banikoara,11.3,2.4333,Benin
Djougou,9.7,1.6667,Benin
Tchaourou,8.8833,2.6,Benin
Parakou,9.35,2.6167,Benin
Kandi,11.1286,2.9369,Benin
Aplahoué,6.9333,1.6833,Benin
Kalalé,10.2953,3.3786,Benin
Malanville,11.8667,3.3833,Benin
Kétou,7.3581,2.6075,Benin
Bohicon,7.2,2.0667,Benin
Djakotomé,6.9,1.7167,Benin
Zagnanado,7.2667,2.35,Benin
Bassila,9.0167,1.6667,Benin
Avrankou,6.55,2.6667,Benin
Missérété,6.5625,2.5853,Benin
Allada,6.65,2.15,Benin
Glazoué,7.9736,2.24,Benin
Pobé,6.9667,2.6833,Benin
Djidja,7.3333,1.9333,Benin
Lalo,6.9167,1.8833,Benin
Gogounou,10.8386,2.8361,Benin
Adjaouèrè,7,2.6167,Benin
Sakété,6.7364,2.6581,Benin
Ifanhim,6.6667,2.7167,Benin
Matéri,10.6978,1.0633,Benin
Ndali,9.8608,2.7181,Benin
Dassa-Zoumé,7.75,2.1833,Benin
Kouandé,10.3317,1.6914,Benin
Banté,8.4167,1.8833,Benin
Lokossa,6.6333,1.7167,Benin
Natitingou,10.3,1.3667,Benin
Tota,6.8,1.7833,Benin
Ouidah,6.3667,2.0833,Benin
Abomey,7.1856,1.9881,Benin
Savalou,7.9333,1.9667,Benin
Agblangandan,6.3667,2.5167,Benin
Golo-Djigbé,6.5403,2.3253,Benin
Tohoué,6.3967,2.5853,Benin
Zinvié,6.6167,2.35,Benin
Akassato,6.5,2.3667,Benin
Hévié,6.4167,2.25,Benin
Ganvié,6.4667,2.4167,Benin
Ouédo,6.4833,2.45,Benin
Dogbo,6.8167,1.7833,Benin
Adjarra,6.5333,2.6667,Benin
Sinendé,10.3447,2.3792,Benin
Toviklin,6.8333,1.8167,Benin
Ségbana,10.9278,3.6944,Benin
Boukoumbé,10.1833,1.1,Benin
Pèrèrè,9.7994,2.9928,Benin
Péhonko,10.2283,2.0019,Benin
So-Awa,6.4667,2.4167,Benin
Toffo,6.85,2.0833,Benin
Péda-Houéyogbé,6.45,1.9333,Benin
Tanguiéta,10.6167,1.2667,Benin
Ouaké,9.6617,1.3847,Benin
Zogbodomé,7.0833,2.1,Benin
Kopargo,9.8375,1.5481,Benin
Bopa,6.5833,1.9833,Benin
Nikki,9.9333,3.2083,Benin
Karimama,12.0667,3.1833,Benin
Dangbo,6.5,2.6833,Benin
Adjohon,6.7,2.4667,Benin
Ouinhri,7,2.45,Benin
Grand-Popo,6.2833,1.8333,Benin
Athiémé,6.5833,1.6667,Benin
Agbangnizoun,7.0667,1.9667,Benin
Tori-Bossito,6.5031,2.145,Benin
Cové,7.2333,2.3,Benin
Toukountouna,10.4986,1.3756,Benin
Kérou,10.825,2.1094,Benin
Ekpé,6.4,2.5333,Benin
Comé,6.4,1.8833,Benin
Savé,8.0333,2.4833,Benin
Bembèrèkè,10.225,2.6681,Benin
Founougo,11.4808,2.5322,Benin
Bonou,6.9,2.45,Benin
Bouka,10.2167,3.1333,Benin
Paouignan,7.6937,2.2673,Benin
Idigny,7.4833,2.7,Benin
Guéné,11.7306,3.2242,Benin
Goumori,11.1833,2.2833,Benin
Azové,6.95,1.7,Benin
Doutou,6.55,1.8833,Benin
Vakon,6.5167,2.5667,Benin
Sori,10.7281,2.7825,Benin
Atchoupa,6.5333,2.6333,Benin
Bagou,10.8147,2.7164,Benin
Kissa,7.0333,1.7833,Benin
Issaba,7.0833,2.6167,Benin
Bouanri,10.2,2.8667,Benin
Togba,7.1,1.6667,Benin
Biro,9.9,2.9333,Benin
Lobogo,6.6333,1.9,Benin
Kolokondé,9.9,1.7667,Benin
Massé,7.1578,2.5436,Benin
Azaourissè,6.6944,2.5075,Benin
Aklanpa,8.1684,2.232,Benin
Tobré,10.2,2.1333,Benin
Adjahomé,7.0618,1.8368,Benin
Tantéga,10.85,1.0333,Benin
Tiahounkossi,10.8167,1.0667,Benin
Ina,9.9833,2.7167,Benin
Ségou,6.6167,2.2167,Benin
Angara-Débou,11.3289,3.0406,Benin
Banigbé,6.9,2.65,Benin
Garou,11.8053,3.4739,Benin
Sérarou,9.5833,2.65,Benin
Dassari,10.8158,1.1406,Benin
Toui,8.6833,2.6,Benin
Pahou,6.3833,2.2167,Benin
Méridjonou,6.4619,2.6774,Benin
Bétérou,9.2,2.2667,Benin
Sakabansi,10.0442,3.3821,Benin
Dahé,6.5167,1.95,Benin
Sinmpérékou,11.2333,2.4167,Benin
Briniamaro,10.7411,2.0731,Benin
Onklou,9.5,1.9833,Benin
Ayomi,6.7833,1.7167,Benin
Adakplamé,7.45,2.55,Benin
Gouka,8.1333,1.9667,Benin
Atomé-Avégamé,7.2333,1.65,Benin
Manta,10.3564,1.1056,Benin
Doumé,8.0167,1.6333,Benin
Katagon,6.6333,2.5833,Benin
Toura,11.2436,2.3831,Benin
Gouandé,10.7828,0.9186,Benin
Kouti,6.5542,2.6616,Benin
Gomparou,11.3,2.4489,Benin
Donwari,11.1197,2.8558,Benin
Godohou,7.0333,1.7833,Benin
Birni,9.9892,1.5269,Benin
Ouédo-Aguéko,6.4963,2.4268,Benin
Siki,10.1833,2.3833,Benin
Kika,9.3,2.2667,Benin
Pira,8.5,1.7333,Benin
Sagon,7.15,2.4167,Benin
Soklogbo,7.6937,2.2673,Benin
Ouénou,9.787,2.6375,Benin
Lissegazoun,6.6167,2.0833,Benin
Sokouhoué,6.9,1.6667,Benin
Gbanhi,8.4497,2.4737,Benin
Tori-Cada,6.5833,2.2,Benin
Sam,11.0333,2.7333,Benin
Kountouri,10.405,0.9425,Benin
Coussé,6.85,2.1333,Benin
Péonga,10.3333,3.2667,Benin
Gbéroubouè,10.5333,2.7333,Benin
Agamé,6.7333,1.7667,Benin
Dérassi,10.1667,3.2667,Benin
Kaboua,8.25,2.6833,Benin
Guinagourou,9.5667,2.95,Benin
Dagbé,6.5667,2.6833,Benin
Niémasson,10.3078,2.0378,Benin
Adohoun,6.6333,1.6667,Benin
Hozin,6.5333,2.55,Benin
Yoko,6.7,2.6167,Benin
Sérékali,9.9186,3.0434,Benin
Agouna,7.5667,1.7,Benin
Sanson,9.2833,2.4333,Benin
Gounarou,10.8667,2.85,Benin
Takon,6.65,2.6167,Benin
Fô-Bouré,10.1167,2.4,Benin
Ahogbeya,7.0333,1.9167,Benin
Kilibo,8.5717,2.6017,Benin
Lonkly,7.1333,1.6833,Benin
Ouando,6.5542,2.6616,Benin
Dougba,8.4497,2.4737,Benin
Dan,7.3167,2.0667,Benin
Agatogba,6.4,1.9,Benin
Libanté,10.7936,3.5828,Benin
Firou,10.9192,1.9386,Benin
Pabégou,9.8333,1.5492,Benin
Massi,9.9167,1.4667,Benin
Tomboutou,11.855,3.2892,Benin
Zoudjamé,6.8167,1.8667,Benin
Lagbé,6.6833,2.6833,Benin
Agoué,6.25,1.6833,Benin
Dasso,7.0167,2.4667,Benin
Adjarra,6.5333,2.2667,Benin
Ouédémè,6.7,1.6833,Benin
Lanta,7.1,1.8667,Benin
Adjido,7.0333,1.9833,Benin
Avabodji,6.4533,2.5275,Benin
Dodji-Bata,6.6833,2.2833,Benin
Igana,7.0333,2.7,Benin
Dékanmé,7.1333,1.9667,Benin
Locogahoué,6.8,1.783,Benin
Birni Lafia,11.9783,3.2225,Benin
Kouarfa,10.4833,1.5167,Benin
Basso,10.5,3.6833,Benin
Tayakou,10.55,1.2,Benin
Datori,10.4017,0.7828,Benin
Bougou,9.4333,1.6167,Benin
Sonsoro,11.0875,2.7597,Benin
Sokotindji,10.8528,3.4297,Benin
Barei,9.6833,1.5667,Benin
Tasso,9.6737,3.2333,Benin
Akpassi,8.45,1.8833,Benin
Takouta,10.3,1.2,Benin
Mousoulou,7.3899,1.9367,Benin
Sèmèrè,9.6268,1.4515,Benin
Tanmpègré,10.48,1.45,Benin
Hamilton,32.2942,-64.7839,Bermuda
Thimphu,27.4722,89.6361,Bhutan
Paro,27.4333,89.4167,Bhutan
Samdrup Jongkhar,26.8,91.505,Bhutan
Wangdue Phodrang,27.4833,89.9,Bhutan
Punakha,27.5833,89.8583,Bhutan
Jakar,27.55,90.7333,Bhutan
Samtse,27.0333,89.0833,Bhutan
Mongar,27.275,91.24,Bhutan
Trashigang,27.3326,91.5528,Bhutan
Trashi Yangtse,27.5833,91.4667,Bhutan
Trongsa,27.4994,90.5047,Bhutan
Zhemgang,27.2134,90.655,Bhutan
Daga,27.0667,89.8833,Bhutan
Tsirang,27.0219,90.1229,Bhutan
Haa,27.3825,89.285,Bhutan
Sarpang,26.8639,90.2674,Bhutan
Pemagatshel,27.0333,91.45,Bhutan
Tsimasham,27.0989,89.536,Bhutan
Lhuentse,27.65,91.15,Bhutan
Gasa,27.9167,89.6833,Bhutan
Phuntsholing,26.85,89.3833,Bhutan
Geylegphug,26.8706,90.4856,Bhutan
Santa Cruz,-17.7892,-63.1975,Bolivia
La Paz,-16.5,-68.15,Bolivia
Sucre,-19.0475,-65.26,Bolivia
El Alto,-16.5047,-68.1633,Bolivia
Cochabamba,-17.3833,-66.1667,Bolivia
Oruro,-17.9667,-67.1167,Bolivia
Tarija,-21.5333,-64.7333,Bolivia
Potosí,-19.5892,-65.7533,Bolivia
Oruro,-17.9799,-67.13,Bolivia
Warnes,-17.5167,-63.1667,Bolivia
Sacaba,-17.4042,-66.0408,Bolivia
Montero,-17.3422,-63.2558,Bolivia
Quillacollo,-17.4,-66.2833,Bolivia
Trinidad,-14.8292,-64.9014,Bolivia
Colcapirhua,-17.4167,-66.25,Bolivia
Cobija,-11.0333,-68.7333,Bolivia
Riberalta,-11.0128,-66.0572,Bolivia
Yacuiba,-22.0153,-63.6772,Bolivia
Villa Tunari,-16.9747,-65.4203,Bolivia
Puerto Villarroel,-16.8667,-64.7831,Bolivia
Sipe Sipe,-17.45,-66.3833,Bolivia
Villamontes,-21.2608,-63.4761,Bolivia
Guayaramerín,-10.8,-65.3833,Bolivia
Camiri,-20.1,-63.5333,Bolivia
Camiri,-20.0386,-63.5183,Bolivia
Tiquipaya,-17.3333,-66.2167,Bolivia
Viacha,-16.6533,-68.3017,Bolivia
Bermejo,-22.7322,-64.3425,Bolivia
Llallagua,-18.4167,-66.5833,Bolivia
Villazón,-22.0911,-65.5961,Bolivia
Uyuni,-20.4667,-66.8167,Bolivia
Mizque,-17.9333,-65.3167,Bolivia
Cotoca,-17.7536,-62.9967,Bolivia
Yapacani,-17.4028,-63.885,Bolivia
San Borja,-14.8583,-66.7475,Bolivia
San Ignacio de Velasco,-16.3667,-60.95,Bolivia
Tupiza,-21.4375,-65.7158,Bolivia
Patacamaya,-17.2333,-67.9167,Bolivia
Caranavi,-15.8333,-67.5667,Bolivia
San Julián,-16.9064,-62.6169,Bolivia
Huanuni,-18.29,-66.8383,Bolivia
Capinota,-17.715,-66.2636,Bolivia
Rurrenabaque,-14.4422,-67.5283,Bolivia
Achocalla,-16.5833,-68.1667,Bolivia
Ascención de Guarayos,-15.8922,-63.1881,Bolivia
Mineros,-17.1178,-63.2331,Bolivia
San José de Chiquitos,-17.85,-60.75,Bolivia
Vallegrande,-18.4833,-64.1,Bolivia
Mapiri,-15.25,-68.1667,Bolivia
Portachuelo,-17.3572,-63.3906,Bolivia
Comarapa,-17.9158,-64.53,Bolivia
Punata,-17.55,-65.8333,Bolivia
Villa Yapacaní,-17.4028,-63.885,Bolivia
Ascensión,-15.6996,-63.08,Bolivia
Vinto,-17.3833,-66.3,Bolivia
Chulumani,-16.4102,-67.5255,Bolivia
Santa Ana de Yacuma,-13.7444,-65.4269,Bolivia
Challapata,-18.9,-66.7667,Bolivia
Puerto Suárez,-18.9667,-57.7981,Bolivia
Corocoro,-17.1667,-68.45,Bolivia
Torotoro,-18.1342,-65.7633,Bolivia
Puerto Quijarro,-17.7796,-57.77,Bolivia
Roboré,-18.3333,-59.75,Bolivia
San Ignacio de Moxo,-14.9961,-65.64,Bolivia
Pailón,-17.6594,-62.7197,Bolivia
Achacachi,-16.0444,-68.685,Bolivia
Reyes,-14.2958,-67.3353,Bolivia
Aiquile,-18.1667,-65.1667,Bolivia
Charagua,-19.7906,-63.1978,Bolivia
Cliza,-17.6,-65.9333,Bolivia
San Ramón,-13.2672,-64.6172,Bolivia
San Carlos,-17.4044,-63.7325,Bolivia
Uncia,-18.4681,-66.5647,Bolivia
Camargo,-20.6403,-65.2103,Bolivia
Samaipata,-18.1794,-63.8756,Bolivia
Magdalena,-13.2606,-64.0528,Bolivia
Apolo,-14.72,-68.5039,Bolivia
Sicasica,-17.3333,-67.7333,Bolivia
Padilla,-19.3,-64.3,Bolivia
Tarabuco,-19.1667,-64.9167,Bolivia
Baures,-13.6556,-63.6958,Bolivia
Coroico,-16.1833,-67.7333,Bolivia
Sorata,-15.7733,-68.6481,Bolivia
Cuevo,-20.45,-63.5167,Bolivia
Santa Cruz de la Sierra,-17.752,-63.2279,Bolivia
Puerto America,-11.55,-68.0667,Bolivia
San Matías,-16.3611,-58.4053,Bolivia
San Javier,-16.2748,-62.5072,Bolivia
Betanzos,-19.5533,-65.4536,Bolivia
Quime,-16.9817,-67.2167,Bolivia
San Lorenzo,-21.4167,-64.7494,Bolivia
Entre Ríos,-21.5264,-64.1733,Bolivia
Villa Martín Colchak,-20.7406,-67.6606,Bolivia
Puerto Acosta,-15.5333,-69.25,Bolivia
Charaña,-17.6,-69.45,Bolivia
Sabaya,-19.0147,-68.3708,Bolivia
Llica,-19.85,-68.25,Bolivia
Puerto Heath,-12.52,-68.6186,Bolivia
Piso Firme,-13.683,-61.8666,Bolivia
San Rafael,-16.7795,-60.6799,Bolivia
Kralendijk,12.1444,-68.2656,"Bonaire, Sint Eustatius, and Saba"
Oranjestad,17.4833,-62.9833,"Bonaire, Sint Eustatius, and Saba"
The Bottom,17.6261,-63.2492,"Bonaire, Sint Eustatius, and Saba"
Sarajevo,43.8564,18.4131,Bosnia and Herzegovina
Banja Luka,44.7725,17.1925,Bosnia and Herzegovina
Bijeljina,44.75,19.2167,Bosnia and Herzegovina
Mostar,43.3436,17.8075,Bosnia and Herzegovina
Tuzla,44.5381,18.6761,Bosnia and Herzegovina
Br?ko,44.8783,18.8092,Bosnia and Herzegovina
Prijedor,44.9667,16.7,Bosnia and Herzegovina
Zenica,44.2017,17.9039,Bosnia and Herzegovina
Doboj,44.7333,18.1333,Bosnia and Herzegovina
Ilidža,43.8167,18.3,Bosnia and Herzegovina
Zvornik,44.3833,19.1,Bosnia and Herzegovina
Živinice,44.45,18.65,Bosnia and Herzegovina
Biha?,44.8167,15.8667,Bosnia and Herzegovina
Sanski Most,44.7667,16.6667,Bosnia and Herzegovina
Lukavac,44.55,18.5167,Bosnia and Herzegovina
Gra?anica,44.6892,18.3022,Bosnia and Herzegovina
Tešanj,44.6142,17.9894,Bosnia and Herzegovina
Srebrenik,44.7,18.4833,Bosnia and Herzegovina
Grada?ac,44.8789,18.4258,Bosnia and Herzegovina
Bugojno,44.0572,17.4508,Bosnia and Herzegovina
Žep?e,44.4333,18.0333,Bosnia and Herzegovina
Trebinje,42.7089,18.3217,Bosnia and Herzegovina
Bosanska Krupa,44.8833,16.15,Bosnia and Herzegovina
?apljina,43.1118,17.7055,Bosnia and Herzegovina
Jajce,44.3417,17.2694,Bosnia and Herzegovina
Vitez,44.1585,17.7885,Bosnia and Herzegovina
Novi Travnik,44.1748,17.6634,Bosnia and Herzegovina
Hadži?i,43.8217,18.2017,Bosnia and Herzegovina
Banovi?i,44.4,18.5333,Bosnia and Herzegovina
Kiseljak,43.9431,18.0775,Bosnia and Herzegovina
Bužim,45.05,16.0333,Bosnia and Herzegovina
Odžak,45.0106,18.3264,Bosnia and Herzegovina
Klju?,44.5333,16.7667,Bosnia and Herzegovina
Busova?a,44.1,17.8833,Bosnia and Herzegovina
?itluk,43.2,17.7,Bosnia and Herzegovina
Stolac,43.0825,17.9558,Bosnia and Herzegovina
Breza,44.0167,18.2611,Bosnia and Herzegovina
Donji Vakuf,44.15,17.4,Bosnia and Herzegovina
Derventa,44.98,17.91,Bosnia and Herzegovina
Goražde,43.6667,18.9778,Bosnia and Herzegovina
Fojnica,43.9667,17.9,Bosnia and Herzegovina
Kladanj,44.2256,18.6925,Bosnia and Herzegovina
Fo?a,43.5,18.7833,Bosnia and Herzegovina
Sapna,44.4917,19.0028,Bosnia and Herzegovina
Jablanica,43.6583,17.7583,Bosnia and Herzegovina
?eli?,44.7167,18.8167,Bosnia and Herzegovina
Olovo,44.1275,18.58,Bosnia and Herzegovina
Vareš,44.1619,18.3269,Bosnia and Herzegovina
Livno,43.8269,17.0081,Bosnia and Herzegovina
Gaborone,-24.6581,25.9122,Botswana
Francistown,-21.1736,27.5125,Botswana
Molepolole,-24.4067,25.495,Botswana
Maun,-19.9833,23.4167,Botswana
Selibe Phikwe,-21.9758,27.84,Botswana
Serowe,-22.3833,26.7167,Botswana
Kanye,-24.9833,25.35,Botswana
Mochudi,-24.4167,26.15,Botswana
Ramotswa,-24.8667,25.8167,Botswana
Lobatse,-25.2167,25.6667,Botswana
Ghanzi,-21.7,21.65,Botswana
Jwaneng,-24.6019,24.7283,Botswana
Tshabong,-26.02,22.4056,Botswana
Kasane,-17.8167,25.15,Botswana
Masunga,-20.6667,27.4167,Botswana
Sowa Town,-20.5636,26.2244,Botswana
Mogoditshane,-24.6333,25.8667,Botswana
Mahalapye,-23.1,26.8,Botswana
Palapye,-22.55,27.1333,Botswana
Tlokweng,-24.6667,25.9667,Botswana
Bobonong,-21.9704,28.4233,Botswana
Letlhakane,-21.4167,25.5833,Botswana
Mosopa,-24.7792,25.4183,Botswana
Thamaga,-24.7167,25.5333,Botswana
Gabane,-24.6667,25.7833,Botswana
Mmopone,-24.5669,25.8733,Botswana
Mmadinare,-21.8746,27.7496,Botswana
Kopong,-24.4686,25.8922,Botswana
Metsemotlhaba,-24.5531,25.8039,Botswana
Shoshong,-23.0333,26.5167,Botswana
Nata,-20.2106,26.1806,Botswana
Mopipi,-21.2019,24.8683,Botswana
Lehututu,-23.9169,21.8264,Botswana
Nokaneng,-19.6639,22.1917,Botswana
Lokwabe,-24.0961,21.7781,Botswana
Tsau,-20.1686,22.4558,Botswana
Muhembo,-18.2996,21.8,Botswana
São Paulo,-23.55,-46.6333,Brazil
Rio de Janeiro,-22.9111,-43.2056,Brazil
Belo Horizonte,-19.9167,-43.9333,Brazil
Brasília,-15.7939,-47.8828,Brazil
Salvador,-12.9747,-38.4767,Brazil
Fortaleza,-3.7275,-38.5275,Brazil
Manaus,-3.1,-60.0167,Brazil
Santos,-23.9369,-46.325,Brazil
Curitiba,-25.4297,-49.2711,Brazil
Recife,-8.05,-34.9,Brazil
Belém,-1.4558,-48.5039,Brazil
Porto Alegre,-30.0331,-51.23,Brazil
Goiânia,-16.6667,-49.25,Brazil
Guarulhos,-23.4628,-46.5328,Brazil
Campinas,-22.9058,-47.0608,Brazil
Vila Velha,3.2167,-51.2167,Brazil
São Luís,-2.5283,-44.3044,Brazil
São Gonçalo,-22.8269,-43.0539,Brazil
Maceió,-9.6658,-35.735,Brazil
Natal,-6.9838,-60.2699,Brazil
Teresina,-5.0949,-42.8042,Brazil
Campo Grande,-20.4839,-54.615,Brazil
Natal,-5.7833,-35.2,Brazil
Iguaçu,-22.74,-43.47,Brazil
São Bernardo do Campo,-23.7,-46.55,Brazil
João Pessoa,-7.12,-34.88,Brazil
Abaeté,-19.1583,-45.4522,Brazil
São José dos Campos,-23.1789,-45.8869,Brazil
Santo André,-23.6572,-46.5333,Brazil
Jaboatão,-8.1803,-35.0014,Brazil
Ribeirão Prêto,-21.1783,-47.8067,Brazil
Osasco,-23.5328,-46.7919,Brazil
Contagem,-19.9319,-44.0539,Brazil
Sorocaba,-23.5017,-47.4581,Brazil
Aracaju,-10.9167,-37.05,Brazil
Feira de Santana,-12.25,-38.95,Brazil
Uberlândia,-18.9231,-48.2886,Brazil
Cuiabá,-15.5958,-56.0969,Brazil
Juiz de Fora,-21.7619,-43.3494,Brazil
Londrina,-23.31,-51.1628,Brazil
Ananindeua,-1.3658,-48.3719,Brazil
Joinvile,-26.3204,-48.8437,Brazil
Macapá,0.033,-51.0653,Brazil
Niterói,-22.8833,-43.1036,Brazil
Serra,-20.1289,-40.3078,Brazil
Florianópolis,-27.6122,-48.4853,Brazil
Vila Velha,-20.3364,-40.2936,Brazil
São José do Rio Prêto,-20.8081,-49.3811,Brazil
Campos,-21.7539,-41.3239,Brazil
Mauá,-23.6678,-46.4608,Brazil
Mogi das Cruzes,-23.5228,-46.1878,Brazil
Diadema,-23.6861,-46.6106,Brazil
Caxias do Sul,-29.1667,-51.1833,Brazil
Porto Velho,-8.7619,-63.9039,Brazil
Boa Vista,2.8194,-60.6714,Brazil
Carapicuíba,-23.5192,-46.8358,Brazil
Rio Branco,-9.9747,-67.81,Brazil
Campina Grande,-7.2306,-35.8811,Brazil
Maringá,-23.4,-51.9167,Brazil
Jundiaí,-23.1858,-46.8839,Brazil
Olinda,-8,-34.8833,Brazil
Piracicaba,-22.7253,-47.6492,Brazil
Betim,-19.9678,-44.1978,Brazil
Caucaia,-3.7167,-38.65,Brazil
Bauru,-22.315,-49.0608,Brazil
Anápolis,-16.3339,-48.9519,Brazil
Blumenau,-26.9333,-49.05,Brazil
Montes Claros,-16.7306,-43.8639,Brazil
Vitória,-20.2889,-40.3083,Brazil
Franca,-20.5389,-47.4008,Brazil
São Vicente,-23.9633,-46.3922,Brazil
Itaquaquecetuba,-23.4864,-46.3486,Brazil
Cariacica,-20.2639,-40.42,Brazil
Caruaru,-8.2828,-35.9758,Brazil
Vitória da Conquista,-14.8658,-40.8389,Brazil
Petrolina,-9.3928,-40.5078,Brazil
Uberaba,-19.7478,-47.9319,Brazil
Ribeirão das Neves,-19.7669,-44.0869,Brazil
Pelotas,-31.7719,-52.3425,Brazil
Canoas,-29.92,-51.18,Brazil
Taubaté,-23.025,-45.5556,Brazil
Guarujá,-23.9936,-46.2564,Brazil
Ponta Grossa,-25.0994,-50.1583,Brazil
Taboão da Serra,-23.5328,-46.7994,Brazil
Santarém,-2.43,-54.72,Brazil
Paulista,-7.9408,-34.8728,Brazil
Limeira,-22.565,-47.4019,Brazil
Praia Grande,-24.0061,-46.4028,Brazil
Petrópolis,-22.505,-43.1789,Brazil
Várzea Grande,-15.65,-56.1333,Brazil
Camaçari,-12.6978,-38.3239,Brazil
Suzano,-23.5428,-46.3108,Brazil
Cascavel,-24.9556,-53.4553,Brazil
Governador Valadares,-18.85,-41.9333,Brazil
Crato,-7.4639,-63.04,Brazil
Volta Redonda,-22.5228,-44.1039,Brazil
Palmas,-10.1844,-48.3336,Brazil
Sumaré,-22.8219,-47.2669,Brazil
Marabá,-5.35,-49.1167,Brazil
Barueri,-23.5111,-46.8764,Brazil
São José dos Pinhais,-25.535,-49.2058,Brazil
Mossoró,-5.1878,-37.3439,Brazil
Indaiatuba,-23.0903,-47.2181,Brazil
Foz do Iguaçu,-25.54,-54.5875,Brazil
Gravataí,-29.9333,-50.9833,Brazil
São Carlos,-22,-47.8908,Brazil
São José,-27.6,-48.6167,Brazil
Juazeiro do Norte,-7.2,-39.3333,Brazil
Imperatriz,-5.5333,-47.4833,Brazil
Americana,-22.7386,-47.3311,Brazil
Santa Maria,-29.6833,-53.8,Brazil
Ipatinga,-19.5,-42.5333,Brazil
Marília,-22.2139,-49.9458,Brazil
Novo Hamburgo,-29.6778,-51.1308,Brazil
Viamão,-30.0808,-51.0228,Brazil
Jacareí,-23.3053,-45.9658,Brazil
Macaé,-22.3708,-41.7869,Brazil
Arapiraca,-9.7519,-36.6608,Brazil
Cotia,-23.6042,-46.9194,Brazil
Rondonópolis,-16.4667,-54.6333,Brazil
Magé,-22.6528,-43.0408,Brazil
Araraquara,-21.7939,-48.1758,Brazil
Itapevi,-23.5489,-46.9342,Brazil
Chapecó,-27.0958,-52.6178,Brazil
Presidente Prudente,-22.1256,-51.3889,Brazil
Santa Luzia,-19.77,-43.8506,Brazil
Juazeiro,-9.4306,-40.5028,Brazil
Itabuna,-14.7858,-39.28,Brazil
Hortolândia,-22.8583,-47.22,Brazil
Itaboraí,-22.7439,-42.8589,Brazil
São Leopoldo,-29.76,-51.1469,Brazil
Sete Lagoas,-19.4658,-44.2469,Brazil
Divinópolis,-20.1389,-44.8839,Brazil
Colombo,-25.2919,-49.2239,Brazil
Criciúma,-28.6775,-49.3697,Brazil
Maracanaú,-3.8667,-38.6333,Brazil
Santo Agostinho,-8.2897,-35.03,Brazil
Passo Fundo,-28.25,-52.4,Brazil
Parnamirim,-5.9167,-35.25,Brazil
Rio Claro,-22.4108,-47.5608,Brazil
Alvorada,-29.9897,-51.0833,Brazil
Araçatuba,-21.2089,-50.4328,Brazil
Rio Grande,-32.035,-52.0986,Brazil
Castanhal,-1.2969,-47.9219,Brazil
Ferraz de Vasconcelos,-23.5411,-46.3689,Brazil
Santa Bárbara d’Oeste,-22.7544,-47.4142,Brazil
Cachoeiro de Itapemirim,-20.8489,-41.1128,Brazil
Angra dos Reis,-23.0067,-44.3181,Brazil
Sobral,-3.6739,-40.2389,Brazil
Cabo Frio,-22.8789,-42.0189,Brazil
Nossa Senhora do Socorro,-10.855,-37.0592,Brazil
Itajaí,-26.9,-48.6667,Brazil
Dourados,-22.2208,-54.8058,Brazil
Nova Friburgo,-22.2819,-42.5311,Brazil
Ilhéus,-14.7889,-39.0489,Brazil
Barra Mansa,-22.5439,-44.1708,Brazil
Linhares,-19.3894,-40.0678,Brazil
Rio Verde,-17.745,-50.9167,Brazil
Luziânia,-16.2528,-47.95,Brazil
São Caetano do Sul,-23.7,-46.55,Brazil
Francisco Morato,-23.2817,-46.7425,Brazil
Itapecerica da Serra,-23.7172,-46.8494,Brazil
Guarapuava,-25.3833,-51.45,Brazil
Itu,-23.2642,-47.2992,Brazil
Teresópolis,-22.4119,-42.9658,Brazil
São José de Ribamar,-2.55,-44.05,Brazil
Jequié,-13.863,-40.0843,Brazil
Ibirité,-20.0219,-44.0589,Brazil
Bragança Paulista,-22.9531,-46.5422,Brazil
Pindamonhangaba,-22.9239,-45.4617,Brazil
Teixeira de Freitas,-17.5403,-39.7437,Brazil
Camarajibe,-8.0219,-34.9808,Brazil
Itapetininga,-23.5917,-48.0531,Brazil
Lajes,-27.8158,-50.3258,Brazil
Timon,-5.0939,-42.8369,Brazil
Caxias,-4.8589,-43.3558,Brazil
Alagoinhas,-12.1358,-38.4189,Brazil
Barreiras,-12.1483,-44.9925,Brazil
Poços de Caldas,-21.7878,-46.5608,Brazil
Abaetetuba,-1.7178,-48.8828,Brazil
Patos de Minas,-18.5817,-46.5147,Brazil
Pôrto Seguro,-16.4333,-39.0833,Brazil
Araguaína,-7.1908,-48.2069,Brazil
Mogi Guaçu,-22.3719,-46.9419,Brazil
Franco da Rocha,-23.3286,-46.7244,Brazil
Parnaíba,-2.905,-41.7769,Brazil
Jaú,-22.2958,-48.5578,Brazil
Jaraguá do Sul,-26.4833,-49.0667,Brazil
Rio das Ostras,-22.5269,-41.945,Brazil
Paranaguá,-25.5208,-48.5094,Brazil
Botucatu,-22.8858,-48.445,Brazil
Brusque,-27.0949,-48.9148,Brazil
Palhoça,-27.6444,-48.6678,Brazil
Atibaia,-23.1172,-46.5506,Brazil
Garanhuns,-8.8903,-36.4928,Brazil
Santa Rita,-7.1139,-34.9778,Brazil
Teófilo Otoni,-17.8578,-41.505,Brazil
Marituba,-10.2833,-36.4,Brazil
Jandira,-23.5278,-46.9028,Brazil
Crato,-7.2339,-39.4089,Brazil
Sinop,-11.8481,-55.6492,Brazil
Cametá,-2.2439,-49.4958,Brazil
Cubatão,-23.8953,-46.4256,Brazil
Ji-Paraná,-10.8853,-61.9517,Brazil
Pouso Alegre,-22.2281,-45.9336,Brazil
Vitória de Santo Antão,-8.1264,-35.3075,Brazil
Araras,-22.3572,-47.3844,Brazil
Maricá,-22.9189,-42.8189,Brazil
Balneário de Camboriú,-26.9953,-48.6356,Brazil
Santana de Parnaíba,-23.4439,-46.9178,Brazil
Sabará,-19.8858,-43.8069,Brazil
Barbacena,-21.2167,-43.7667,Brazil
Uruguaiana,-29.755,-57.0878,Brazil
Resende,-22.4689,-44.4469,Brazil
Varginha,-21.5517,-45.43,Brazil
Santana,-0.035,-51.175,Brazil
Itatiba,-23.0058,-46.8389,Brazil
Bragança,-1.0628,-46.7728,Brazil
Barretos,-20.5569,-48.5678,Brazil
Bento Gonçalves,-29.1708,-51.5189,Brazil
Guarapari,-20.65,-40.5,Brazil
Ribeirão Pires,-23.7153,-46.4194,Brazil
Apucarana,-23.5508,-51.4608,Brazil
Valinhos,-22.9706,-46.9958,Brazil
Cachoeirinha,-29.9508,-51.0939,Brazil
Sertãozinho,-21.1381,-47.9906,Brazil
Poá,-23.5286,-46.345,Brazil
Várzea Paulista,-23.2114,-46.8283,Brazil
Catanduva,-21.1378,-48.9728,Brazil
Toledo,-24.7139,-53.7428,Brazil
Araucária,-25.5928,-49.41,Brazil
Paulo Afonso,-9.4,-38.225,Brazil
Guaratinguetá,-22.8167,-45.2278,Brazil
Barcarena Nova,-1.5058,-48.6258,Brazil
Birigui,-21.2886,-50.34,Brazil
Santa Cruz do Sul,-29.7178,-52.4258,Brazil
Votorantim,-23.5469,-47.4378,Brazil
Codó,-4.455,-43.8858,Brazil
Araguari,-18.6489,-48.1869,Brazil
Tatuí,-23.3556,-47.8569,Brazil
Conselheiro Lafaiete,-20.66,-43.7858,Brazil
Bagé,-31.3308,-54.1069,Brazil
Itapipoca,-3.4939,-39.5789,Brazil
Três Lagoas,-20.7511,-51.6783,Brazil
Salto,-23.2008,-47.2869,Brazil
Maranguape,-3.89,-38.6858,Brazil
Ubá,-21.12,-42.9428,Brazil
Caraguatatuba,-23.62,-45.4128,Brazil
Euriápolis,-16.3778,-39.58,Brazil
Campo Largo,-25.4589,-49.5278,Brazil
Araruama,-22.8728,-42.3428,Brazil
Corumbá,-19.0089,-57.6528,Brazil
Colatina,-19.5389,-40.6308,Brazil
Parintins,-2.6278,-56.7358,Brazil
Catalão,-18.17,-47.9419,Brazil
Ourinhos,-22.9744,-49.8719,Brazil
Altamira,-3.2028,-52.2058,Brazil
Itabira,-19.6189,-43.2269,Brazil
São Mateus,-18.7158,-39.8589,Brazil
Erechim,-27.6339,-52.2739,Brazil
Patos,-7.0244,-37.28,Brazil
Passos,-20.7189,-46.61,Brazil
Vespasiano,-19.6919,-43.9228,Brazil
Ariquemes,-9.9161,-63.0408,Brazil
Paço do Lumiar,-2.5319,-44.1078,Brazil
Assis,-22.6619,-50.4119,Brazil
Trindade,-16.6581,-49.4836,Brazil
Leme,-22.1861,-47.3906,Brazil
Arapongas,-23.4189,-51.4239,Brazil
Coronel Fabriciano,-19.5189,-42.6289,Brazil
Açailandia,-4.9469,-47.505,Brazil
Araxá,-19.5928,-46.9408,Brazil
Almirante Tamandaré,-25.325,-49.31,Brazil
São Lourenço da Mata,-8.0019,-35.0178,Brazil
Itanhaém,-24.1806,-46.7828,Brazil
Igarassu,-7.8342,-34.9064,Brazil
Santo Antônio de Jesus,-12.9692,-39.2611,Brazil
Balsas,-7.5328,-46.0358,Brazil
Muriaé,-21.1306,-42.3664,Brazil
Umuarama,-23.7658,-53.325,Brazil
Mairiporã,-23.3189,-46.5869,Brazil
Formosa,-15.5369,-47.3339,Brazil
Bacabal,-4.225,-44.78,Brazil
Bayeux,-7.1333,-34.9333,Brazil
Esteio,-29.8608,-51.1789,Brazil
Campo Formoso,-10.5089,-40.3208,Brazil
Cabedelo,-6.9808,-34.8339,Brazil
Euclides da Cunha,-10.5078,-39.0139,Brazil
Mineiros,-17.5689,-52.5508,Brazil
Riacho de Santana,-13.6089,-42.9389,Brazil
Pompeu,-19.2239,-44.935,Brazil
Ipu,-4.3257,-40.7103,Brazil
Arapoti,-24.1578,-49.8269,Brazil
Itambé,-15.245,-40.6239,Brazil
Pedreiras,-4.5696,-44.67,Brazil
Cachoeira Alta,-18.7628,-50.9419,Brazil
Elesbão Veloso,-6.2019,-42.14,Brazil
Breves,-1.6819,-50.48,Brazil
Itaituba,-4.2758,-55.9839,Brazil
Paulínia,-22.7611,-47.1542,Brazil
Paragominas,-2.9958,-47.3528,Brazil
Tubarão,-28.4667,-49.0069,Brazil
Valença,-13.37,-39.0728,Brazil
Ituiutaba,-18.9667,-49.4667,Brazil
Tucuruí,-3.7678,-49.6728,Brazil
Itacoatiara,-3.1428,-58.4439,Brazil
Barra do Piraí,-22.47,-43.8258,Brazil
Caieiras,-23.3644,-46.7408,Brazil
Cambé,-23.2758,-51.2778,Brazil
Japeri,-22.6431,-43.6533,Brazil
Iguatu,-6.3589,-39.2989,Brazil
Nova Lima,-19.9858,-43.8469,Brazil
Itaperuna,-21.205,-41.8878,Brazil
Guaíba,-30.1139,-51.325,Brazil
Abreu e Lima,-7.9117,-34.9028,Brazil
Lagarto,-10.9169,-37.65,Brazil
Manacapuru,-3.3,-60.6206,Brazil
Itaúna,-20.075,-44.5758,Brazil
Vilhena,-12.7406,-60.1458,Brazil
Piraquara,-25.4419,-49.0628,Brazil
Itumbiara,-18.4167,-49.2167,Brazil
Itapeva,-23.9819,-48.8758,Brazil
Lavras,-21.245,-45,Brazil
Ubatuba,-23.4339,-45.0708,Brazil
São João da Boa Vista,-21.9689,-46.7978,Brazil
Mogi Mirim,-22.4319,-46.9578,Brazil
Votuporanga,-20.4228,-49.9728,Brazil
Caçapava,-23.1008,-45.7069,Brazil
São Félix do Xingu,-6.6333,-51.9833,Brazil
Avaré,-23.0989,-48.9258,Brazil
Cáceres,-16.0711,-57.6789,Brazil
Itajubá,-22.4258,-45.4528,Brazil
São João del Rei,-21.1358,-44.2619,Brazil
São Sebastião,-23.804,-45.4051,Brazil
Candeias,-12.6678,-38.5508,Brazil
Ponta Porã,-22.5358,-55.7258,Brazil
São Pedro da Aldeia,-22.8389,-42.1028,Brazil
São Gonçalo do Amarante,-5.7928,-35.3289,Brazil
Jataí,-17.8808,-51.8306,Brazil
Santa Cruz do Capibaribe,-7.9569,-36.205,Brazil
Itabaiana,-10.685,-37.425,Brazil
São Cristóvão,-11.015,-37.2058,Brazil
São Roque,-23.5289,-47.135,Brazil
Cacoal,-11.4386,-61.4472,Brazil
Coari,-4.085,-63.1408,Brazil
Guanambi,-14.2228,-42.7808,Brazil
Cachoeira do Sul,-30.0394,-52.8953,Brazil
Caratinga,-19.79,-42.1389,Brazil
Jacobina,-11.1808,-40.5178,Brazil
Arujá,-23.3967,-46.3211,Brazil
Senador Canedo,-16.7594,-49.0864,Brazil
Paracatu,-17.2217,-46.875,Brazil
Serra Talhada,-7.9858,-38.2958,Brazil
Pará de Minas,-19.86,-44.6078,Brazil
Ijuí,-28.3878,-53.915,Brazil
Serrinha,-11.6639,-39.0078,Brazil
Santana do Livramento,-30.8908,-55.5328,Brazil
Seropédica,-22.7439,-43.7078,Brazil
Barra do Corda,-5.5058,-45.2428,Brazil
Sorriso,-12.545,-55.7108,Brazil
Cruzeiro do Sul,-7.6308,-72.67,Brazil
Patrocínio,-18.9439,-46.9928,Brazil
Campo Mourão,-24.0458,-52.3828,Brazil
Aracruz,-19.82,-40.2728,Brazil
Campo Limpo,-23.2064,-46.7844,Brazil
Timóteo,-19.5828,-42.6439,Brazil
Planaltina,-15.4528,-47.6139,Brazil
Paranavaí,-23.0728,-52.465,Brazil
Matão,-21.6033,-48.3658,Brazil
Senhor do Bonfim,-10.4628,-40.1908,Brazil
Aquiraz,-3.9008,-38.3908,Brazil
Ipojuca,-8.4,-35.0625,Brazil
Manhuaçu,-20.2581,-42.0336,Brazil
Alfenas,-21.4289,-45.9469,Brazil
Pato Branco,-26.2289,-52.6708,Brazil
Francisco Beltrão,-26.0808,-53.055,Brazil
Telêmaco Borba,-24.3239,-50.6158,Brazil
Moju,-1.8839,-48.7689,Brazil
Dias d’Ávila,-12.6128,-38.2969,Brazil
Pinheiro,-2.5208,-45.0828,Brazil
Bebedouro,-20.9494,-48.4792,Brazil
Três Rios,-22.1169,-43.2089,Brazil
Unaí,-16.3639,-46.8944,Brazil
Santa Inês,-3.6669,-45.38,Brazil
Araripina,-7.55,-40.5667,Brazil
Itapetinga,-15.2489,-40.2478,Brazil
Gurupi,-11.7289,-49.0689,Brazil
Gravatá,-8.2008,-35.565,Brazil
Ibiúna,-23.6564,-47.2225,Brazil
Santo Ângelo,-28.2989,-54.2628,Brazil
Lins,-21.6786,-49.7425,Brazil
Quixadá,-4.9708,-39.015,Brazil
Jabuticabal,-21.255,-48.3219,Brazil
Rio Largo,-9.4778,-35.8528,Brazil
Goiana,-7.5608,-35.0028,Brazil
Redenção,-8.0289,-50.0308,Brazil
Sapiranga,-29.6378,-51.0069,Brazil
Itapira,-22.4361,-46.8217,Brazil
Carpina,-7.85,-35.25,Brazil
São Bento do Sul,-26.25,-49.3789,Brazil
Piraçununga,-21.9961,-47.4258,Brazil
Canindé,-4.3589,-39.3119,Brazil
Saquarema,-22.92,-42.51,Brazil
Palmeira dos Índios,-9.4069,-36.6278,Brazil
João Monlevade,-19.81,-43.1739,Brazil
Curvelo,-18.7558,-44.4308,Brazil
Ouro Prêto,-20.3853,-43.5036,Brazil
Santa Rosa,-27.8708,-54.4808,Brazil
Nova Serrana,-19.8667,-44.9833,Brazil
Irecê,-11.3039,-41.8558,Brazil
Picos,-7.0769,-41.4669,Brazil
Vinhedo,-23.03,-46.975,Brazil
Chapadinha,-3.7419,-43.36,Brazil
Farroupilha,-29.225,-51.3478,Brazil
Alegrete,-29.7839,-55.7911,Brazil
Três Corações,-21.6947,-45.2553,Brazil
Pacatuba,-3.9839,-38.62,Brazil
Amparo,-22.7031,-46.765,Brazil
Crateús,-5.1778,-40.6778,Brazil
Aracati,-4.5619,-37.77,Brazil
Belo Jardim,-8.3358,-36.4239,Brazil
Cajamar,-23.3558,-46.8769,Brazil
Lajeado,-29.4669,-51.9608,Brazil
Casa Nova,-9.1619,-40.9708,Brazil
Quixeramobim,-5.1989,-39.2928,Brazil
Valença,-22.2458,-43.7,Brazil
Caçador,-26.775,-51.015,Brazil
São Sebastião do Paraíso,-20.9169,-46.9908,Brazil
Caldas Novas,-17.7439,-48.6258,Brazil
Cianorte,-23.6628,-52.605,Brazil
Cataguases,-21.3889,-42.6969,Brazil
Russas,-4.94,-37.9758,Brazil
Macaíba,-5.8578,-35.3539,Brazil
Bom Jesus da Lapa,-13.255,-43.4178,Brazil
Fernandópolis,-20.2839,-50.2458,Brazil
Brumado,-14.2039,-41.665,Brazil
Mococa,-21.4678,-47.0047,Brazil
Arcoverde,-8.4189,-37.0539,Brazil
Tianguá,-3.7319,-40.9919,Brazil
Sousa,-6.7608,-38.2308,Brazil
Concórdia,-27.2339,-52.0278,Brazil
Ceará-Mirim,-5.6339,-35.4258,Brazil
Conceição do Coité,-11.5639,-39.2828,Brazil
Embu-Guaçu,-23.8322,-46.8114,Brazil
Caicó,-6.4578,-37.0978,Brazil
Itamaraju,-17.0389,-39.5308,Brazil
Rio Negro,-26.1,-49.79,Brazil
Cosmópolis,-22.6458,-47.1961,Brazil
Tabatinga,-4.2525,-69.9381,Brazil
Castro,-24.7908,-50.0119,Brazil
Capanema,-1.1958,-47.1808,Brazil
Janaúba,-15.8028,-43.3089,Brazil
Itaberaba,-12.5278,-40.3069,Brazil
Lençóis Paulista,-22.5986,-48.8003,Brazil
União dos Palmares,-9.1628,-36.0319,Brazil
Venâncio Aires,-29.6058,-52.1919,Brazil
Tupã,-21.935,-50.5139,Brazil
Icó,-6.4008,-38.8619,Brazil
Januária,-15.4878,-44.3619,Brazil
Peruíbe,-24.31,-47,Brazil
Viana,-20.39,-40.4958,Brazil
Formiga,-20.4639,-45.4258,Brazil
Bertioga,-23.8539,-46.1389,Brazil
Cruz das Almas,-12.67,-39.1019,Brazil
Estância,-11.2678,-37.4378,Brazil
Ouricuri,-7.8828,-40.0819,Brazil
Penedo,-10.29,-36.5858,Brazil
Escada,-8.3592,-35.2236,Brazil
Rolândia,-23.31,-51.3689,Brazil
Santo Antônio do Descoberto,-15.94,-48.255,Brazil
Itupeva,-23.1531,-47.0578,Brazil
Batatais,-20.8911,-47.585,Brazil
São Borja,-28.6608,-56.0039,Brazil
Pesqueira,-8.3617,-36.6947,Brazil
Cruz Alta,-28.6386,-53.6064,Brazil
Camaquã,-30.8528,-51.8153,Brazil
Oriximiná,-1.7658,-55.8658,Brazil
Camboriú,-27.025,-48.6539,Brazil
Tefé,-3.3539,-64.7108,Brazil
Caràzinho,-28.2839,-52.7858,Brazil
Penápolis,-21.42,-50.0778,Brazil
