"City","Latitude","Longitude","Country"
"https://kracr.iiitd.edu.in/Location#kabul","34.5253","69.1783","https://kracr.iiitd.edu.in/Location#afghanistan"
"https://kracr.iiitd.edu.in/Location#kunduz","36.7286","68.8681","https://kracr.iiitd.edu.in/Location#afghanistan"
"https://kracr.iiitd.edu.in/Location#zaranj","30.96","61.86","https://kracr.iiitd.edu.in/Location#afghanistan"
"https://kracr.iiitd.edu.in/Location#sharan","33.1757","68.7304","https://kracr.iiitd.edu.in/Location#afghanistan"
"https://kracr.iiitd.edu.in/Location#balkh","36.7581","66.8981","https://kracr.iiitd.edu.in/Location#afghanistan"
"https://kracr.iiitd.edu.in/Location#khulm","36.6833","67.6833","https://kracr.iiitd.edu.in/Location#afghanistan"
"https://kracr.iiitd.edu.in/Location#karukh","34.4922","62.5922","https://kracr.iiitd.edu.in/Location#afghanistan"
"https://kracr.iiitd.edu.in/Location#kushk","33.2956","61.9522","https://kracr.iiitd.edu.in/Location#afghanistan"
"https://kracr.iiitd.edu.in/Location#taywarah","33.51","64.42","https://kracr.iiitd.edu.in/Location#afghanistan"
"https://kracr.iiitd.edu.in/Location#tujg","32.0686","61.8058","https://kracr.iiitd.edu.in/Location#afghanistan"
"https://kracr.iiitd.edu.in/Location#tirana","41.3289","19.8178","https://kracr.iiitd.edu.in/Location#albania"
"https://kracr.iiitd.edu.in/Location#fier","40.725","19.5572","https://kracr.iiitd.edu.in/Location#albania"
"https://kracr.iiitd.edu.in/Location#elbasan","41.1111","20.0806","https://kracr.iiitd.edu.in/Location#albania"
"https://kracr.iiitd.edu.in/Location#berat","40.7","19.95","https://kracr.iiitd.edu.in/Location#albania"
"https://kracr.iiitd.edu.in/Location#peshkopi","41.6833","20.4281","https://kracr.iiitd.edu.in/Location#albania"
"https://kracr.iiitd.edu.in/Location#pogradec","40.9","20.65","https://kracr.iiitd.edu.in/Location#albania"
"https://kracr.iiitd.edu.in/Location#sukth","41.3833","19.5333","https://kracr.iiitd.edu.in/Location#albania"
"https://kracr.iiitd.edu.in/Location#patos","40.6833","19.6167","https://kracr.iiitd.edu.in/Location#albania"
"https://kracr.iiitd.edu.in/Location#burrel","41.6083","20.0111","https://kracr.iiitd.edu.in/Location#albania"
"https://kracr.iiitd.edu.in/Location#gramsh","40.8667","20.1833","https://kracr.iiitd.edu.in/Location#albania"
"https://kracr.iiitd.edu.in/Location#perondi","40.7833","19.9333","https://kracr.iiitd.edu.in/Location#albania"
"https://kracr.iiitd.edu.in/Location#libonik","40.75","20.7167","https://kracr.iiitd.edu.in/Location#albania"
"https://kracr.iiitd.edu.in/Location#belsh","40.9833","19.8833","https://kracr.iiitd.edu.in/Location#albania"
"https://kracr.iiitd.edu.in/Location#librazhd","41.1833","20.3167","https://kracr.iiitd.edu.in/Location#albania"
"https://kracr.iiitd.edu.in/Location#bajramcurri","42.3581","20.0758","https://kracr.iiitd.edu.in/Location#albania"
"https://kracr.iiitd.edu.in/Location#algiers","36.7539","3.0589","https://kracr.iiitd.edu.in/Location#algeria"
"https://kracr.iiitd.edu.in/Location#oran","35.6969","-0.6331","https://kracr.iiitd.edu.in/Location#algeria"
"https://kracr.iiitd.edu.in/Location#constantine","36.365","6.6147","https://kracr.iiitd.edu.in/Location#algeria"
"https://kracr.iiitd.edu.in/Location#blida","36.4722","2.8333","https://kracr.iiitd.edu.in/Location#algeria"
"https://kracr.iiitd.edu.in/Location#batna","35.55","6.1667","https://kracr.iiitd.edu.in/Location#algeria"
"https://kracr.iiitd.edu.in/Location#djelfa","34.6667","3.25","https://kracr.iiitd.edu.in/Location#algeria"
"https://kracr.iiitd.edu.in/Location#annaba","36.9","7.7667","https://kracr.iiitd.edu.in/Location#algeria"
"https://kracr.iiitd.edu.in/Location#biskra","34.85","5.7333","https://kracr.iiitd.edu.in/Location#algeria"
"https://kracr.iiitd.edu.in/Location#tiaret","35.3667","1.3167","https://kracr.iiitd.edu.in/Location#algeria"
"https://kracr.iiitd.edu.in/Location#tlemcen","34.8828","-1.3167","https://kracr.iiitd.edu.in/Location#algeria"
"https://kracr.iiitd.edu.in/Location#bordjbouarreridj","36.0667","4.7667","https://kracr.iiitd.edu.in/Location#algeria"
"https://kracr.iiitd.edu.in/Location#skikda","36.8667","6.9","https://kracr.iiitd.edu.in/Location#algeria"
"https://kracr.iiitd.edu.in/Location#eleulma","36.1528","5.69","https://kracr.iiitd.edu.in/Location#algeria"
"https://kracr.iiitd.edu.in/Location#chlef","36.1647","1.3317","https://kracr.iiitd.edu.in/Location#algeria"
"https://kracr.iiitd.edu.in/Location#soukahras","36.2864","7.9511","https://kracr.iiitd.edu.in/Location#algeria"
"https://kracr.iiitd.edu.in/Location#mostaganem","35.9333","0.0833","https://kracr.iiitd.edu.in/Location#algeria"
"https://kracr.iiitd.edu.in/Location#tiziouzou","36.7169","4.0497","https://kracr.iiitd.edu.in/Location#algeria"
"https://kracr.iiitd.edu.in/Location#eloued","33.3683","6.8675","https://kracr.iiitd.edu.in/Location#algeria"
"https://kracr.iiitd.edu.in/Location#laghouat","33.8","2.865","https://kracr.iiitd.edu.in/Location#algeria"
"https://kracr.iiitd.edu.in/Location#jijel","36.8206","5.7667","https://kracr.iiitd.edu.in/Location#algeria"
"https://kracr.iiitd.edu.in/Location#ouargla","31.95","5.3167","https://kracr.iiitd.edu.in/Location#algeria"
"https://kracr.iiitd.edu.in/Location#relizane","35.7372","0.5558","https://kracr.iiitd.edu.in/Location#algeria"
"https://kracr.iiitd.edu.in/Location#guelma","36.4619","7.4258","https://kracr.iiitd.edu.in/Location#algeria"
"https://kracr.iiitd.edu.in/Location#khenchela","35.4167","7.1333","https://kracr.iiitd.edu.in/Location#algeria"
"https://kracr.iiitd.edu.in/Location#mascara","35.4","0.1333","https://kracr.iiitd.edu.in/Location#algeria"
"https://kracr.iiitd.edu.in/Location#messaad","34.1542","3.4969","https://kracr.iiitd.edu.in/Location#algeria"
"https://kracr.iiitd.edu.in/Location#oumelbouaghi","35.8706","7.115","https://kracr.iiitd.edu.in/Location#algeria"
"https://kracr.iiitd.edu.in/Location#elbayadh","33.6831","1.0192","https://kracr.iiitd.edu.in/Location#algeria"
"https://kracr.iiitd.edu.in/Location#tamanrasset","22.785","5.5228","https://kracr.iiitd.edu.in/Location#algeria"
"https://kracr.iiitd.edu.in/Location#tissemsilt","35.6072","1.8106","https://kracr.iiitd.edu.in/Location#algeria"
"https://kracr.iiitd.edu.in/Location#bouira","36.38","3.9014","https://kracr.iiitd.edu.in/Location#algeria"
"https://kracr.iiitd.edu.in/Location#adrar","27.8742","-0.2939","https://kracr.iiitd.edu.in/Location#algeria"
"https://kracr.iiitd.edu.in/Location#boudouaou","36.73","3.41","https://kracr.iiitd.edu.in/Location#algeria"
"https://kracr.iiitd.edu.in/Location#tindouf","27.6753","-8.1286","https://kracr.iiitd.edu.in/Location#algeria"
"https://kracr.iiitd.edu.in/Location#boumerdes","36.7603","3.4724","https://kracr.iiitd.edu.in/Location#algeria"
"https://kracr.iiitd.edu.in/Location#elgolea","30.6","2.9","https://kracr.iiitd.edu.in/Location#algeria"
"https://kracr.iiitd.edu.in/Location#touggourt","33.1","6.0667","https://kracr.iiitd.edu.in/Location#algeria"
"https://kracr.iiitd.edu.in/Location#timimoun","29.25","0.2333","https://kracr.iiitd.edu.in/Location#algeria"
"https://kracr.iiitd.edu.in/Location#eltarf","36.7669","8.3136","https://kracr.iiitd.edu.in/Location#algeria"
"https://kracr.iiitd.edu.in/Location#tipasa","36.5942","2.443","https://kracr.iiitd.edu.in/Location#algeria"
"https://kracr.iiitd.edu.in/Location#illizi","26.508","8.4829","https://kracr.iiitd.edu.in/Location#algeria"
"https://kracr.iiitd.edu.in/Location#bordjmokhtar","21.3289","0.9542","https://kracr.iiitd.edu.in/Location#algeria"
"https://kracr.iiitd.edu.in/Location#naama","33.2678","-0.3111","https://kracr.iiitd.edu.in/Location#algeria"
"https://kracr.iiitd.edu.in/Location#djanet","24.555","9.4853","https://kracr.iiitd.edu.in/Location#algeria"
"https://kracr.iiitd.edu.in/Location#inguezzam","19.5686","5.7722","https://kracr.iiitd.edu.in/Location#algeria"
"https://kracr.iiitd.edu.in/Location#mila","36.4481","6.2622","https://kracr.iiitd.edu.in/Location#algeria"
"https://kracr.iiitd.edu.in/Location#ouleddjellal","34.4167","5.0667","https://kracr.iiitd.edu.in/Location#algeria"
"https://kracr.iiitd.edu.in/Location#essenia","35.6478","-0.6239","https://kracr.iiitd.edu.in/Location#algeria"
"https://kracr.iiitd.edu.in/Location#khemismiliana","36.26","2.2","https://kracr.iiitd.edu.in/Location#algeria"
"https://kracr.iiitd.edu.in/Location#elmilia","36.75","6.2667","https://kracr.iiitd.edu.in/Location#algeria"
"https://kracr.iiitd.edu.in/Location#khemiselkhechna","36.65","3.3306","https://kracr.iiitd.edu.in/Location#algeria"
"https://kracr.iiitd.edu.in/Location#mecheria","33.55","-0.2833","https://kracr.iiitd.edu.in/Location#algeria"
"https://kracr.iiitd.edu.in/Location#rouiba","36.7333","3.2833","https://kracr.iiitd.edu.in/Location#algeria"
"https://kracr.iiitd.edu.in/Location#tighenif","35.4167","0.333","https://kracr.iiitd.edu.in/Location#algeria"
"https://kracr.iiitd.edu.in/Location#lakhdaria","36.5622","3.5944","https://kracr.iiitd.edu.in/Location#algeria"
"https://kracr.iiitd.edu.in/Location#boufarik","36.575","2.9097","https://kracr.iiitd.edu.in/Location#algeria"
"https://kracr.iiitd.edu.in/Location#azzaba","36.7333","7.1","https://kracr.iiitd.edu.in/Location#algeria"
"https://kracr.iiitd.edu.in/Location#akbou","36.4667","4.5333","https://kracr.iiitd.edu.in/Location#algeria"
"https://kracr.iiitd.edu.in/Location#ouledmoussa","36.6831","3.3681","https://kracr.iiitd.edu.in/Location#algeria"
"https://kracr.iiitd.edu.in/Location#hassimessaoud","31.7","6.0667","https://kracr.iiitd.edu.in/Location#algeria"
"https://kracr.iiitd.edu.in/Location#draaelmizan","36.5333","3.8333","https://kracr.iiitd.edu.in/Location#algeria"
"https://kracr.iiitd.edu.in/Location#souma","36.5183","2.9053","https://kracr.iiitd.edu.in/Location#algeria"
"https://kracr.iiitd.edu.in/Location#bougara","36.5333","3.0833","https://kracr.iiitd.edu.in/Location#algeria"
"https://kracr.iiitd.edu.in/Location#azazga","36.7453","4.3711","https://kracr.iiitd.edu.in/Location#algeria"
"https://kracr.iiitd.edu.in/Location#didouchemourad","36.4484","6.6339","https://kracr.iiitd.edu.in/Location#algeria"
"https://kracr.iiitd.edu.in/Location#dellys","36.9133","3.9141","https://kracr.iiitd.edu.in/Location#algeria"
"https://kracr.iiitd.edu.in/Location#draabenkhedda","36.7349","3.9556","https://kracr.iiitd.edu.in/Location#algeria"
"https://kracr.iiitd.edu.in/Location#boghni","36.5437","3.9523","https://kracr.iiitd.edu.in/Location#algeria"
"https://kracr.iiitd.edu.in/Location#tizigheniff","36.5891","3.7678","https://kracr.iiitd.edu.in/Location#algeria"
"https://kracr.iiitd.edu.in/Location#elkseur","36.6844","4.8522","https://kracr.iiitd.edu.in/Location#algeria"
"https://kracr.iiitd.edu.in/Location#timizart","36.8","4.2667","https://kracr.iiitd.edu.in/Location#algeria"
"https://kracr.iiitd.edu.in/Location#babar","35.1692","7.1013","https://kracr.iiitd.edu.in/Location#algeria"
"https://kracr.iiitd.edu.in/Location#freha","36.762","4.3163","https://kracr.iiitd.edu.in/Location#algeria"
"https://kracr.iiitd.edu.in/Location#mekla","36.6876","4.2681","https://kracr.iiitd.edu.in/Location#algeria"
"https://kracr.iiitd.edu.in/Location#tadjmout","33.8667","2.5167","https://kracr.iiitd.edu.in/Location#algeria"
"https://kracr.iiitd.edu.in/Location#beniamrane","36.6686","3.5922","https://kracr.iiitd.edu.in/Location#algeria"
"https://kracr.iiitd.edu.in/Location#makouda","36.7909","4.0669","https://kracr.iiitd.edu.in/Location#algeria"
"https://kracr.iiitd.edu.in/Location#amoucha","36.388","5.4108","https://kracr.iiitd.edu.in/Location#algeria"
"https://kracr.iiitd.edu.in/Location#naciria","36.75","3.8333","https://kracr.iiitd.edu.in/Location#algeria"
"https://kracr.iiitd.edu.in/Location#kadiria","36.5333","3.6833","https://kracr.iiitd.edu.in/Location#algeria"
"https://kracr.iiitd.edu.in/Location#djinet","36.877","3.7231","https://kracr.iiitd.edu.in/Location#algeria"
"https://kracr.iiitd.edu.in/Location#benidouala","36.6167","4.0667","https://kracr.iiitd.edu.in/Location#algeria"
"https://kracr.iiitd.edu.in/Location#thenia","36.7278","3.5539","https://kracr.iiitd.edu.in/Location#algeria"
"https://kracr.iiitd.edu.in/Location#aomar","36.5","3.7833","https://kracr.iiitd.edu.in/Location#algeria"
"https://kracr.iiitd.edu.in/Location#talayfassene","36.4583","5.0889","https://kracr.iiitd.edu.in/Location#algeria"
"https://kracr.iiitd.edu.in/Location#reggane","26.7","0.1667","https://kracr.iiitd.edu.in/Location#algeria"
"https://kracr.iiitd.edu.in/Location#arbaoun","36.4667","5.65","https://kracr.iiitd.edu.in/Location#algeria"
"https://kracr.iiitd.edu.in/Location#tirmitine","36.6618","3.9848","https://kracr.iiitd.edu.in/Location#algeria"
"https://kracr.iiitd.edu.in/Location#timoktene","27.0217","1.015","https://kracr.iiitd.edu.in/Location#algeria"
"https://kracr.iiitd.edu.in/Location#bettioua","35.8","-0.2667","https://kracr.iiitd.edu.in/Location#algeria"
"https://kracr.iiitd.edu.in/Location#benifouda","36.2861","5.6071","https://kracr.iiitd.edu.in/Location#algeria"
"https://kracr.iiitd.edu.in/Location#tizirached","36.6718","4.1918","https://kracr.iiitd.edu.in/Location#algeria"
"https://kracr.iiitd.edu.in/Location#sididaoud","36.85","3.85","https://kracr.iiitd.edu.in/Location#algeria"
"https://kracr.iiitd.edu.in/Location#azeffoun","36.8961","4.4204","https://kracr.iiitd.edu.in/Location#algeria"
"https://kracr.iiitd.edu.in/Location#tichi","36.6675","5.1601","https://kracr.iiitd.edu.in/Location#algeria"
"https://kracr.iiitd.edu.in/Location#chorfa","36.3617","4.3307","https://kracr.iiitd.edu.in/Location#algeria"
"https://kracr.iiitd.edu.in/Location#ouadhia","36.55","4.0833","https://kracr.iiitd.edu.in/Location#algeria"
"https://kracr.iiitd.edu.in/Location#boudjima","36.814","4.1588","https://kracr.iiitd.edu.in/Location#algeria"
"https://kracr.iiitd.edu.in/Location#ouledsidibrahim","36.3667","3.7167","https://kracr.iiitd.edu.in/Location#algeria"
"https://kracr.iiitd.edu.in/Location#iflissen","36.8636","4.2203","https://kracr.iiitd.edu.in/Location#algeria"
"https://kracr.iiitd.edu.in/Location#abadla","31.0167","-2.7333","https://kracr.iiitd.edu.in/Location#algeria"
"https://kracr.iiitd.edu.in/Location#takerbouzt","36.418","4.3428","https://kracr.iiitd.edu.in/Location#algeria"
"https://kracr.iiitd.edu.in/Location#moudjbara","34.5037","3.4704","https://kracr.iiitd.edu.in/Location#algeria"
"https://kracr.iiitd.edu.in/Location#afir","36.7676","3.7029","https://kracr.iiitd.edu.in/Location#algeria"
"https://kracr.iiitd.edu.in/Location#mechtras","36.5448","4.0049","https://kracr.iiitd.edu.in/Location#algeria"
"https://kracr.iiitd.edu.in/Location#sali","26.9833","-0.0333","https://kracr.iiitd.edu.in/Location#algeria"
"https://kracr.iiitd.edu.in/Location#elmarsa","36.8111","3.2556","https://kracr.iiitd.edu.in/Location#algeria"
"https://kracr.iiitd.edu.in/Location#arhribs","36.8022","4.3227","https://kracr.iiitd.edu.in/Location#algeria"
"https://kracr.iiitd.edu.in/Location#simustapha","36.7247","3.6153","https://kracr.iiitd.edu.in/Location#algeria"
"https://kracr.iiitd.edu.in/Location#iferhounene","36.5338","4.3701","https://kracr.iiitd.edu.in/Location#algeria"
"https://kracr.iiitd.edu.in/Location#eladjiba","36.3333","4.15","https://kracr.iiitd.edu.in/Location#algeria"
"https://kracr.iiitd.edu.in/Location#yakouren","36.7348","4.4386","https://kracr.iiitd.edu.in/Location#algeria"
"https://kracr.iiitd.edu.in/Location#tigzirt","36.8931","4.1225","https://kracr.iiitd.edu.in/Location#algeria"
"https://kracr.iiitd.edu.in/Location#bechloul","36.3167","4.0667","https://kracr.iiitd.edu.in/Location#algeria"
"https://kracr.iiitd.edu.in/Location#charouine","29.0167","-0.2667","https://kracr.iiitd.edu.in/Location#algeria"
"https://kracr.iiitd.edu.in/Location#birghbalou","36.2642","3.5836","https://kracr.iiitd.edu.in/Location#algeria"
"https://kracr.iiitd.edu.in/Location#sidinamane","36.7581","3.9839","https://kracr.iiitd.edu.in/Location#algeria"
"https://kracr.iiitd.edu.in/Location#sidibrahim","35.2606","-0.5675","https://kracr.iiitd.edu.in/Location#algeria"
"https://kracr.iiitd.edu.in/Location#bordjokhriss","36.0833","3.9667","https://kracr.iiitd.edu.in/Location#algeria"
"https://kracr.iiitd.edu.in/Location#bennasseur","33.1107","6.441","https://kracr.iiitd.edu.in/Location#algeria"
"https://kracr.iiitd.edu.in/Location#souama","36.6417","4.3416","https://kracr.iiitd.edu.in/Location#algeria"
"https://kracr.iiitd.edu.in/Location#bounouh","36.5","3.9333","https://kracr.iiitd.edu.in/Location#algeria"
"https://kracr.iiitd.edu.in/Location#toudja","36.7586","4.8933","https://kracr.iiitd.edu.in/Location#algeria"
"https://kracr.iiitd.edu.in/Location#ifigha","36.6667","4.4167","https://kracr.iiitd.edu.in/Location#algeria"
"https://kracr.iiitd.edu.in/Location#ouledrached","36.2119","4.1106","https://kracr.iiitd.edu.in/Location#algeria"
"https://kracr.iiitd.edu.in/Location#seddoukoufella","36.6061","4.6389","https://kracr.iiitd.edu.in/Location#algeria"
"https://kracr.iiitd.edu.in/Location#abalessa","22.89","4.8472","https://kracr.iiitd.edu.in/Location#algeria"
"https://kracr.iiitd.edu.in/Location#boukhralfa","36.6144","5.0872","https://kracr.iiitd.edu.in/Location#algeria"
"https://kracr.iiitd.edu.in/Location#tifra","36.6664","4.6972","https://kracr.iiitd.edu.in/Location#algeria"
"https://kracr.iiitd.edu.in/Location#amalou","36.4778","4.6333","https://kracr.iiitd.edu.in/Location#algeria"
"https://kracr.iiitd.edu.in/Location#beniounif","32.05","-1.25","https://kracr.iiitd.edu.in/Location#algeria"
"https://kracr.iiitd.edu.in/Location#pagopago","-14.274","-170.7046","https://kracr.iiitd.edu.in/Location#americansamoa"
"https://kracr.iiitd.edu.in/Location#andorralavella","42.5","1.5","https://kracr.iiitd.edu.in/Location#andorra"
"https://kracr.iiitd.edu.in/Location#encamp","42.5361","1.5828","https://kracr.iiitd.edu.in/Location#andorra"
"https://kracr.iiitd.edu.in/Location#lamassana","42.5444","1.5144","https://kracr.iiitd.edu.in/Location#andorra"
"https://kracr.iiitd.edu.in/Location#ordino","42.555","1.5331","https://kracr.iiitd.edu.in/Location#andorra"
"https://kracr.iiitd.edu.in/Location#canillo","42.5667","1.6","https://kracr.iiitd.edu.in/Location#andorra"
"https://kracr.iiitd.edu.in/Location#luanda","-8.8383","13.2344","https://kracr.iiitd.edu.in/Location#angola"
"https://kracr.iiitd.edu.in/Location#cacuaco","-8.8053","13.2444","https://kracr.iiitd.edu.in/Location#angola"
"https://kracr.iiitd.edu.in/Location#lubango","-14.9167","13.5","https://kracr.iiitd.edu.in/Location#angola"
"https://kracr.iiitd.edu.in/Location#cabinda","-5.56","12.19","https://kracr.iiitd.edu.in/Location#angola"
"https://kracr.iiitd.edu.in/Location#huambo","-12.7767","15.7347","https://kracr.iiitd.edu.in/Location#angola"
"https://kracr.iiitd.edu.in/Location#malanje","-9.5333","16.35","https://kracr.iiitd.edu.in/Location#angola"
"https://kracr.iiitd.edu.in/Location#benguela","-12.55","13.4167","https://kracr.iiitd.edu.in/Location#angola"
"https://kracr.iiitd.edu.in/Location#belas","-8.9983","13.265","https://kracr.iiitd.edu.in/Location#angola"
"https://kracr.iiitd.edu.in/Location#talatona","-8.9167","13.1833","https://kracr.iiitd.edu.in/Location#angola"
"https://kracr.iiitd.edu.in/Location#lobito","-12.3597","13.5308","https://kracr.iiitd.edu.in/Location#angola"
"https://kracr.iiitd.edu.in/Location#saurimo","-9.65","20.4","https://kracr.iiitd.edu.in/Location#angola"
"https://kracr.iiitd.edu.in/Location#cubal","-13.1117","14.3672","https://kracr.iiitd.edu.in/Location#angola"
"https://kracr.iiitd.edu.in/Location#luena","-11.7918","19.9062","https://kracr.iiitd.edu.in/Location#angola"
"https://kracr.iiitd.edu.in/Location#cuito","-12.3833","16.9333","https://kracr.iiitd.edu.in/Location#angola"
"https://kracr.iiitd.edu.in/Location#menongue","-14.6556","17.6842","https://kracr.iiitd.edu.in/Location#angola"
"https://kracr.iiitd.edu.in/Location#vilateixeiradasilva","-12.0072","15.7792","https://kracr.iiitd.edu.in/Location#angola"
"https://kracr.iiitd.edu.in/Location#sumbe","-11.2053","13.8417","https://kracr.iiitd.edu.in/Location#angola"
"https://kracr.iiitd.edu.in/Location#gabela","-10.85","14.3667","https://kracr.iiitd.edu.in/Location#angola"
"https://kracr.iiitd.edu.in/Location#ndulo","-11.4833","15.8333","https://kracr.iiitd.edu.in/Location#angola"
"https://kracr.iiitd.edu.in/Location#ganda","-13.0858","14.7417","https://kracr.iiitd.edu.in/Location#angola"
"https://kracr.iiitd.edu.in/Location#barradodande","-8.4728","13.3731","https://kracr.iiitd.edu.in/Location#angola"
"https://kracr.iiitd.edu.in/Location#soio","-6.1333","12.3667","https://kracr.iiitd.edu.in/Location#angola"
"https://kracr.iiitd.edu.in/Location#tchitato","-7.345","20.8198","https://kracr.iiitd.edu.in/Location#angola"
"https://kracr.iiitd.edu.in/Location#chibia","-15.1833","13.7","https://kracr.iiitd.edu.in/Location#angola"
"https://kracr.iiitd.edu.in/Location#ucuseles","-11.4047","14.3006","https://kracr.iiitd.edu.in/Location#angola"
"https://kracr.iiitd.edu.in/Location#cuango","-9.1444","18.0464","https://kracr.iiitd.edu.in/Location#angola"
"https://kracr.iiitd.edu.in/Location#dundo","-7.3801","20.8351","https://kracr.iiitd.edu.in/Location#angola"
"https://kracr.iiitd.edu.in/Location#catumbela","-12.4167","13.5333","https://kracr.iiitd.edu.in/Location#angola"
"https://kracr.iiitd.edu.in/Location#cazanga","-9.3","14.95","https://kracr.iiitd.edu.in/Location#angola"
"https://kracr.iiitd.edu.in/Location#caluquembe","-13.9208","14.5347","https://kracr.iiitd.edu.in/Location#angola"
"https://kracr.iiitd.edu.in/Location#catape","-13.7667","15.0833","https://kracr.iiitd.edu.in/Location#angola"
"https://kracr.iiitd.edu.in/Location#ebo","-11","14.6667","https://kracr.iiitd.edu.in/Location#angola"
"https://kracr.iiitd.edu.in/Location#bocoio","-12.4667","14.1333","https://kracr.iiitd.edu.in/Location#angola"
"https://kracr.iiitd.edu.in/Location#quibala","-10.7333","14.9833","https://kracr.iiitd.edu.in/Location#angola"
"https://kracr.iiitd.edu.in/Location#ndalatando","-9.3","14.9167","https://kracr.iiitd.edu.in/Location#angola"
"https://kracr.iiitd.edu.in/Location#quipungo","-14.8167","14.5167","https://kracr.iiitd.edu.in/Location#angola"
"https://kracr.iiitd.edu.in/Location#lucapa","-8.4228","20.7393","https://kracr.iiitd.edu.in/Location#angola"
"https://kracr.iiitd.edu.in/Location#mbanzakongo","-6.2667","14.25","https://kracr.iiitd.edu.in/Location#angola"
"https://kracr.iiitd.edu.in/Location#maqueladozombo","-6.05","15.1167","https://kracr.iiitd.edu.in/Location#angola"
"https://kracr.iiitd.edu.in/Location#namacunde","-17.3","15.85","https://kracr.iiitd.edu.in/Location#angola"
"https://kracr.iiitd.edu.in/Location#negage","-7.7667","15.2667","https://kracr.iiitd.edu.in/Location#angola"
"https://kracr.iiitd.edu.in/Location#portoamboim","-10.7183","13.75","https://kracr.iiitd.edu.in/Location#angola"
"https://kracr.iiitd.edu.in/Location#quimbele","-6.5167","16.2167","https://kracr.iiitd.edu.in/Location#angola"
"https://kracr.iiitd.edu.in/Location#londuimbali","-12.2186","15.285","https://kracr.iiitd.edu.in/Location#angola"
"https://kracr.iiitd.edu.in/Location#chicomba","-14.1333","14.9167","https://kracr.iiitd.edu.in/Location#angola"
"https://kracr.iiitd.edu.in/Location#chinguar","-12.55","16.3333","https://kracr.iiitd.edu.in/Location#angola"
"https://kracr.iiitd.edu.in/Location#catabola","-12.1167","17.3","https://kracr.iiitd.edu.in/Location#angola"
"https://kracr.iiitd.edu.in/Location#ondjiva","-17.0667","15.7333","https://kracr.iiitd.edu.in/Location#angola"
"https://kracr.iiitd.edu.in/Location#catchiungo","-12.7864","16.3233","https://kracr.iiitd.edu.in/Location#angola"
"https://kracr.iiitd.edu.in/Location#cassongue","-11.8333","15","https://kracr.iiitd.edu.in/Location#angola"
"https://kracr.iiitd.edu.in/Location#quilengues","-14.0814","14.0764","https://kracr.iiitd.edu.in/Location#angola"
"https://kracr.iiitd.edu.in/Location#mungo","-11.6667","16.1667","https://kracr.iiitd.edu.in/Location#angola"
"https://kracr.iiitd.edu.in/Location#balombo","-12.35","14.7667","https://kracr.iiitd.edu.in/Location#angola"
"https://kracr.iiitd.edu.in/Location#ndjamba","-14.7","16.0667","https://kracr.iiitd.edu.in/Location#angola"
"https://kracr.iiitd.edu.in/Location#caxito","-8.58","13.6642","https://kracr.iiitd.edu.in/Location#angola"
"https://kracr.iiitd.edu.in/Location#quilenda","-10.6333","14.3333","https://kracr.iiitd.edu.in/Location#angola"
"https://kracr.iiitd.edu.in/Location#caimbambo","-12.9","14.0833","https://kracr.iiitd.edu.in/Location#angola"
"https://kracr.iiitd.edu.in/Location#cambambe","-9.7586","14.5122","https://kracr.iiitd.edu.in/Location#angola"
"https://kracr.iiitd.edu.in/Location#uacucungo","-11.3583","15.1194","https://kracr.iiitd.edu.in/Location#angola"
"https://kracr.iiitd.edu.in/Location#luau","-10.7044","22.2283","https://kracr.iiitd.edu.in/Location#angola"
"https://kracr.iiitd.edu.in/Location#conda","-11.1667","14.5","https://kracr.iiitd.edu.in/Location#angola"
"https://kracr.iiitd.edu.in/Location#humpata","-15.0725","13.3678","https://kracr.iiitd.edu.in/Location#angola"
"https://kracr.iiitd.edu.in/Location#chongoroi","-13.5667","13.95","https://kracr.iiitd.edu.in/Location#angola"
"https://kracr.iiitd.edu.in/Location#longonjo","-12.9067","15.1864","https://kracr.iiitd.edu.in/Location#angola"
"https://kracr.iiitd.edu.in/Location#calandala","-9.0667","17.9","https://kracr.iiitd.edu.in/Location#angola"
"https://kracr.iiitd.edu.in/Location#capendacamulemba","-9.5647","18.7633","https://kracr.iiitd.edu.in/Location#angola"
"https://kracr.iiitd.edu.in/Location#kuvango","-14.4667","16.3","https://kracr.iiitd.edu.in/Location#angola"
"https://kracr.iiitd.edu.in/Location#chitembo","-13.5167","16.7667","https://kracr.iiitd.edu.in/Location#angola"
"https://kracr.iiitd.edu.in/Location#cunhinga","-12.2333","16.7833","https://kracr.iiitd.edu.in/Location#angola"
"https://kracr.iiitd.edu.in/Location#dondo","-9.6942","14.4228","https://kracr.iiitd.edu.in/Location#angola"
"https://kracr.iiitd.edu.in/Location#xangongo","-16.7467","14.9747","https://kracr.iiitd.edu.in/Location#angola"
"https://kracr.iiitd.edu.in/Location#cahama","-16.2833","14.3167","https://kracr.iiitd.edu.in/Location#angola"
"https://kracr.iiitd.edu.in/Location#sanzapombo","-7.3333","16","https://kracr.iiitd.edu.in/Location#angola"
"https://kracr.iiitd.edu.in/Location#chipindo","-13.8244","15.8","https://kracr.iiitd.edu.in/Location#angola"
"https://kracr.iiitd.edu.in/Location#camabatela","-8.1833","15.3667","https://kracr.iiitd.edu.in/Location#angola"
"https://kracr.iiitd.edu.in/Location#sungo","-11.2333","14.3167","https://kracr.iiitd.edu.in/Location#angola"
"https://kracr.iiitd.edu.in/Location#nambuangongo","-8.0167","14.2","https://kracr.iiitd.edu.in/Location#angola"
"https://kracr.iiitd.edu.in/Location#calulo","-10.0007","14.901","https://kracr.iiitd.edu.in/Location#angola"
"https://kracr.iiitd.edu.in/Location#camacupa","-12.0256","17.4686","https://kracr.iiitd.edu.in/Location#angola"
"https://kracr.iiitd.edu.in/Location#cuvelai","-15.6667","15.8","https://kracr.iiitd.edu.in/Location#angola"
"https://kracr.iiitd.edu.in/Location#cuemba","-12.15","18.0833","https://kracr.iiitd.edu.in/Location#angola"
"https://kracr.iiitd.edu.in/Location#portoalexandre","-15.8","11.85","https://kracr.iiitd.edu.in/Location#angola"
"https://kracr.iiitd.edu.in/Location#ucuma","-12.85","15.0667","https://kracr.iiitd.edu.in/Location#angola"
"https://kracr.iiitd.edu.in/Location#luquembo","-10.7333","17.8833","https://kracr.iiitd.edu.in/Location#angola"
"https://kracr.iiitd.edu.in/Location#cangola","-7.9667","15.8667","https://kracr.iiitd.edu.in/Location#angola"
"https://kracr.iiitd.edu.in/Location#cambundicatembo","-10.0756","17.5569","https://kracr.iiitd.edu.in/Location#angola"
"https://kracr.iiitd.edu.in/Location#cangandala","-9.7833","16.4333","https://kracr.iiitd.edu.in/Location#angola"
"https://kracr.iiitd.edu.in/Location#mucaba","-7.1667","14.9333","https://kracr.iiitd.edu.in/Location#angola"
"https://kracr.iiitd.edu.in/Location#cuchi","-14.65","16.9","https://kracr.iiitd.edu.in/Location#angola"
"https://kracr.iiitd.edu.in/Location#cuitocuanavale","-15.1667","19.1667","https://kracr.iiitd.edu.in/Location#angola"
"https://kracr.iiitd.edu.in/Location#cacuso","-8.2333","15.35","https://kracr.iiitd.edu.in/Location#angola"
"https://kracr.iiitd.edu.in/Location#puri","-7.6833","15.6","https://kracr.iiitd.edu.in/Location#angola"
"https://kracr.iiitd.edu.in/Location#quilevo","-7.6167","15.05","https://kracr.iiitd.edu.in/Location#angola"
"https://kracr.iiitd.edu.in/Location#golungoalto","-9.1333","14.7667","https://kracr.iiitd.edu.in/Location#angola"
"https://kracr.iiitd.edu.in/Location#muconda","-10.6","21.3167","https://kracr.iiitd.edu.in/Location#angola"
"https://kracr.iiitd.edu.in/Location#massango","-11.3167","14.9333","https://kracr.iiitd.edu.in/Location#angola"
"https://kracr.iiitd.edu.in/Location#bembe","-7.1","14.45","https://kracr.iiitd.edu.in/Location#angola"
"https://kracr.iiitd.edu.in/Location#bucozau","-4.795","12.5467","https://kracr.iiitd.edu.in/Location#angola"
"https://kracr.iiitd.edu.in/Location#virei","-15.7167","12.95","https://kracr.iiitd.edu.in/Location#angola"
"https://kracr.iiitd.edu.in/Location#cacolo","-10.1333","19.2667","https://kracr.iiitd.edu.in/Location#angola"
"https://kracr.iiitd.edu.in/Location#tchindjendje","-12.8167","14.9333","https://kracr.iiitd.edu.in/Location#angola"
"https://kracr.iiitd.edu.in/Location#mucari","-9.4667","16.9167","https://kracr.iiitd.edu.in/Location#angola"
"https://kracr.iiitd.edu.in/Location#dala","-11.0342","20.2036","https://kracr.iiitd.edu.in/Location#angola"
"https://kracr.iiitd.edu.in/Location#marimba","-8.3667","17.0167","https://kracr.iiitd.edu.in/Location#angola"
"https://kracr.iiitd.edu.in/Location#ambriz","-7.85","13.1167","https://kracr.iiitd.edu.in/Location#angola"
"https://kracr.iiitd.edu.in/Location#lucala","-9.6333","14.0667","https://kracr.iiitd.edu.in/Location#angola"
"https://kracr.iiitd.edu.in/Location#sambacango","-9.1","15.55","https://kracr.iiitd.edu.in/Location#angola"
"https://kracr.iiitd.edu.in/Location#caombo","-8.7","16.5167","https://kracr.iiitd.edu.in/Location#angola"
"https://kracr.iiitd.edu.in/Location#quirima","-10.9","18.0833","https://kracr.iiitd.edu.in/Location#angola"
"https://kracr.iiitd.edu.in/Location#cacongo","-5.2333","12.1333","https://kracr.iiitd.edu.in/Location#angola"
"https://kracr.iiitd.edu.in/Location#quela","-9.3833","17.05","https://kracr.iiitd.edu.in/Location#angola"
"https://kracr.iiitd.edu.in/Location#luacano","-11.2167","21.65","https://kracr.iiitd.edu.in/Location#angola"
"https://kracr.iiitd.edu.in/Location#lubalo","-9.15","19.2833","https://kracr.iiitd.edu.in/Location#angola"
"https://kracr.iiitd.edu.in/Location#quibaxi","-8.5","14.5833","https://kracr.iiitd.edu.in/Location#angola"
"https://kracr.iiitd.edu.in/Location#ambiula","-7.4333","14.65","https://kracr.iiitd.edu.in/Location#angola"
"https://kracr.iiitd.edu.in/Location#bolongongo","-8.4667","15.25","https://kracr.iiitd.edu.in/Location#angola"
"https://kracr.iiitd.edu.in/Location#nzeto","-7.229","12.865","https://kracr.iiitd.edu.in/Location#angola"
"https://kracr.iiitd.edu.in/Location#songo","-7.3496","14.85","https://kracr.iiitd.edu.in/Location#angola"
"https://kracr.iiitd.edu.in/Location#banga","-8.7333","15.1667","https://kracr.iiitd.edu.in/Location#angola"
"https://kracr.iiitd.edu.in/Location#quiculungo","-8.5167","15.3167","https://kracr.iiitd.edu.in/Location#angola"
"https://kracr.iiitd.edu.in/Location#chibemba","-15.7355","13.8905","https://kracr.iiitd.edu.in/Location#angola"
"https://kracr.iiitd.edu.in/Location#cazombo","-11.9058","22.9217","https://kracr.iiitd.edu.in/Location#angola"
"https://kracr.iiitd.edu.in/Location#balacangamba","-13.6833","19.8667","https://kracr.iiitd.edu.in/Location#angola"
"https://kracr.iiitd.edu.in/Location#calenga","-11.3196","16.2","https://kracr.iiitd.edu.in/Location#angola"
"https://kracr.iiitd.edu.in/Location#tchitado","-17.3167","13.9167","https://kracr.iiitd.edu.in/Location#angola"
"https://kracr.iiitd.edu.in/Location#thevalley","18.2167","-63.05","https://kracr.iiitd.edu.in/Location#anguilla"
"https://kracr.iiitd.edu.in/Location#buenosaires","-34.5997","-58.3819","https://kracr.iiitd.edu.in/Location#argentina"
"https://kracr.iiitd.edu.in/Location#rosario","-32.9575","-60.6394","https://kracr.iiitd.edu.in/Location#argentina"
"https://kracr.iiitd.edu.in/Location#santiagodelestero","-27.7833","-64.2667","https://kracr.iiitd.edu.in/Location#argentina"
"https://kracr.iiitd.edu.in/Location#comodororivadavia","-45.8647","-67.4808","https://kracr.iiitd.edu.in/Location#argentina"
"https://kracr.iiitd.edu.in/Location#mardelplata","-38","-57.55","https://kracr.iiitd.edu.in/Location#argentina"
"https://kracr.iiitd.edu.in/Location#salta","-24.7833","-65.4167","https://kracr.iiitd.edu.in/Location#argentina"
"https://kracr.iiitd.edu.in/Location#sanjuan","-31.5342","-68.5261","https://kracr.iiitd.edu.in/Location#argentina"
"https://kracr.iiitd.edu.in/Location#florenciovarela","-34.8167","-58.2833","https://kracr.iiitd.edu.in/Location#argentina"
"https://kracr.iiitd.edu.in/Location#santafe","-31.6333","-60.7","https://kracr.iiitd.edu.in/Location#argentina"
"https://kracr.iiitd.edu.in/Location#corrientes","-27.4833","-58.8167","https://kracr.iiitd.edu.in/Location#argentina"
"https://kracr.iiitd.edu.in/Location#sansalvadordejujuy","-24.1833","-65.3","https://kracr.iiitd.edu.in/Location#argentina"
"https://kracr.iiitd.edu.in/Location#resistencia","-27.4514","-58.9867","https://kracr.iiitd.edu.in/Location#argentina"
"https://kracr.iiitd.edu.in/Location#posadas","-27.3667","-55.9","https://kracr.iiitd.edu.in/Location#argentina"
"https://kracr.iiitd.edu.in/Location#quilmes","-34.7167","-58.2667","https://kracr.iiitd.edu.in/Location#argentina"
"https://kracr.iiitd.edu.in/Location#merlo","-34.6653","-58.7275","https://kracr.iiitd.edu.in/Location#argentina"
"https://kracr.iiitd.edu.in/Location#formosa","-26.1833","-58.1833","https://kracr.iiitd.edu.in/Location#argentina"
"https://kracr.iiitd.edu.in/Location#banfield","-34.75","-58.3833","https://kracr.iiitd.edu.in/Location#argentina"
"https://kracr.iiitd.edu.in/Location#isidrocasanova","-34.7","-58.5833","https://kracr.iiitd.edu.in/Location#argentina"
"https://kracr.iiitd.edu.in/Location#laplata","-34.9211","-57.9544","https://kracr.iiitd.edu.in/Location#argentina"
"https://kracr.iiitd.edu.in/Location#godoycruz","-32.9167","-68.8333","https://kracr.iiitd.edu.in/Location#argentina"
"https://kracr.iiitd.edu.in/Location#lasheras","-32.85","-68.8167","https://kracr.iiitd.edu.in/Location#argentina"
"https://kracr.iiitd.edu.in/Location#berazategui","-34.7167","-58.25","https://kracr.iiitd.edu.in/Location#argentina"
"https://kracr.iiitd.edu.in/Location#larioja","-29.4125","-66.8542","https://kracr.iiitd.edu.in/Location#argentina"
"https://kracr.iiitd.edu.in/Location#sanluis","-33.3","-66.3333","https://kracr.iiitd.edu.in/Location#argentina"
"https://kracr.iiitd.edu.in/Location#sanmiguel","-34.5333","-58.7167","https://kracr.iiitd.edu.in/Location#argentina"
"https://kracr.iiitd.edu.in/Location#generalroca","-39.0333","-67.5833","https://kracr.iiitd.edu.in/Location#argentina"
"https://kracr.iiitd.edu.in/Location#catamarca","-28.4667","-65.7833","https://kracr.iiitd.edu.in/Location#argentina"
"https://kracr.iiitd.edu.in/Location#rafaelcastillo","-34.7167","-58.6167","https://kracr.iiitd.edu.in/Location#argentina"
"https://kracr.iiitd.edu.in/Location#florenciovarela","-34.8167","-58.3833","https://kracr.iiitd.edu.in/Location#argentina"
"https://kracr.iiitd.edu.in/Location#concordia","-31.4","-58.0333","https://kracr.iiitd.edu.in/Location#argentina"
"https://kracr.iiitd.edu.in/Location#sanjusto","-34.6833","-58.55","https://kracr.iiitd.edu.in/Location#argentina"
"https://kracr.iiitd.edu.in/Location#temperley","-34.7667","-58.3833","https://kracr.iiitd.edu.in/Location#argentina"
"https://kracr.iiitd.edu.in/Location#lomasdezamora","-34.7667","-58.4","https://kracr.iiitd.edu.in/Location#argentina"
"https://kracr.iiitd.edu.in/Location#sanrafael","-34.6","-68.3333","https://kracr.iiitd.edu.in/Location#argentina"
"https://kracr.iiitd.edu.in/Location#mendoza","-32.8833","-68.8167","https://kracr.iiitd.edu.in/Location#argentina"
"https://kracr.iiitd.edu.in/Location#tandil","-37.3167","-59.1333","https://kracr.iiitd.edu.in/Location#argentina"
"https://kracr.iiitd.edu.in/Location#puertomadryn","-42.7667","-65.05","https://kracr.iiitd.edu.in/Location#argentina"
"https://kracr.iiitd.edu.in/Location#bernal","-34.7","-58.2833","https://kracr.iiitd.edu.in/Location#argentina"
"https://kracr.iiitd.edu.in/Location#castelar","-34.6667","-58.6667","https://kracr.iiitd.edu.in/Location#argentina"
"https://kracr.iiitd.edu.in/Location#sancarlosdebariloche","-41.15","-71.3","https://kracr.iiitd.edu.in/Location#argentina"
"https://kracr.iiitd.edu.in/Location#villamercedes","-33.6667","-65.4667","https://kracr.iiitd.edu.in/Location#argentina"
"https://kracr.iiitd.edu.in/Location#villakrause","-31.5833","-68.5333","https://kracr.iiitd.edu.in/Location#argentina"
"https://kracr.iiitd.edu.in/Location#labanda","-27.7333","-64.25","https://kracr.iiitd.edu.in/Location#argentina"
"https://kracr.iiitd.edu.in/Location#villaluzuriaga","-34.6667","-58.5833","https://kracr.iiitd.edu.in/Location#argentina"
"https://kracr.iiitd.edu.in/Location#caseros","-34.6106","-58.5625","https://kracr.iiitd.edu.in/Location#argentina"
"https://kracr.iiitd.edu.in/Location#libertad","-34.6833","-58.6833","https://kracr.iiitd.edu.in/Location#argentina"
"https://kracr.iiitd.edu.in/Location#santarosa","-36.6167","-64.2833","https://kracr.iiitd.edu.in/Location#argentina"
"https://kracr.iiitd.edu.in/Location#burzaco","-34.8167","-58.3667","https://kracr.iiitd.edu.in/Location#argentina"
"https://kracr.iiitd.edu.in/Location#ciudadgeneralbelgrano","-34.7167","-58.5333","https://kracr.iiitd.edu.in/Location#argentina"
"https://kracr.iiitd.edu.in/Location#sanfranciscosolano","-34.7667","-58.3167","https://kracr.iiitd.edu.in/Location#argentina"
"https://kracr.iiitd.edu.in/Location#montechingolo","-34.7333","-58.35","https://kracr.iiitd.edu.in/Location#argentina"
"https://kracr.iiitd.edu.in/Location#grandbourg","-34.4833","-58.7167","https://kracr.iiitd.edu.in/Location#argentina"
"https://kracr.iiitd.edu.in/Location#remediosdeescalada","-34.7167","-58.4","https://kracr.iiitd.edu.in/Location#argentina"
"https://kracr.iiitd.edu.in/Location#ezpeleta","-34.7517","-58.2344","https://kracr.iiitd.edu.in/Location#argentina"
"https://kracr.iiitd.edu.in/Location#villacelina","-34.7006","-58.4825","https://kracr.iiitd.edu.in/Location#argentina"
"https://kracr.iiitd.edu.in/Location#elpalomar","-34.6167","-58.5833","https://kracr.iiitd.edu.in/Location#argentina"
"https://kracr.iiitd.edu.in/Location#lomasdelmirador","-34.6667","-58.5297","https://kracr.iiitd.edu.in/Location#argentina"
"https://kracr.iiitd.edu.in/Location#ciudadela","-34.6333","-58.5333","https://kracr.iiitd.edu.in/Location#argentina"
"https://kracr.iiitd.edu.in/Location#viedma","-40.8","-63","https://kracr.iiitd.edu.in/Location#argentina"
"https://kracr.iiitd.edu.in/Location#bellavista","-34.5333","-58.6667","https://kracr.iiitd.edu.in/Location#argentina"
"https://kracr.iiitd.edu.in/Location#gerli","-34.6833","-58.3667","https://kracr.iiitd.edu.in/Location#argentina"
"https://kracr.iiitd.edu.in/Location#wilde","-34.7","-58.3167","https://kracr.iiitd.edu.in/Location#argentina"
"https://kracr.iiitd.edu.in/Location#lospolvorines","-34.5","-58.7","https://kracr.iiitd.edu.in/Location#argentina"
"https://kracr.iiitd.edu.in/Location#hurlingham","-34.5883","-58.6392","https://kracr.iiitd.edu.in/Location#argentina"
"https://kracr.iiitd.edu.in/Location#beccar","-34.4667","-58.5167","https://kracr.iiitd.edu.in/Location#argentina"
"https://kracr.iiitd.edu.in/Location#glew","-34.8833","-58.3833","https://kracr.iiitd.edu.in/Location#argentina"
"https://kracr.iiitd.edu.in/Location#rafaelcalzada","-34.7833","-58.3667","https://kracr.iiitd.edu.in/Location#argentina"
"https://kracr.iiitd.edu.in/Location#marianoacosta","-34.7167","-58.7833","https://kracr.iiitd.edu.in/Location#argentina"
"https://kracr.iiitd.edu.in/Location#ushuaia","-54.8019","-68.3031","https://kracr.iiitd.edu.in/Location#argentina"
"https://kracr.iiitd.edu.in/Location#florida","-34.5167","-58.5","https://kracr.iiitd.edu.in/Location#argentina"
"https://kracr.iiitd.edu.in/Location#longchamps","-34.85","-58.3833","https://kracr.iiitd.edu.in/Location#argentina"
"https://kracr.iiitd.edu.in/Location#villaalsina","-34.6667","-58.4167","https://kracr.iiitd.edu.in/Location#argentina"
"https://kracr.iiitd.edu.in/Location#sanisidro","-34.4667","-58.5167","https://kracr.iiitd.edu.in/Location#argentina"
"https://kracr.iiitd.edu.in/Location#llavallol","-34.7667","-58.3833","https://kracr.iiitd.edu.in/Location#argentina"
"https://kracr.iiitd.edu.in/Location#docksur","-34.6417","-58.3478","https://kracr.iiitd.edu.in/Location#argentina"
"https://kracr.iiitd.edu.in/Location#claypole","-34.8","-58.3333","https://kracr.iiitd.edu.in/Location#argentina"
"https://kracr.iiitd.edu.in/Location#haedo","-34.65","-58.6","https://kracr.iiitd.edu.in/Location#argentina"
"https://kracr.iiitd.edu.in/Location#munro","-34.5333","-58.5167","https://kracr.iiitd.edu.in/Location#argentina"
"https://kracr.iiitd.edu.in/Location#villaadelina","-34.5175","-58.5475","https://kracr.iiitd.edu.in/Location#argentina"
"https://kracr.iiitd.edu.in/Location#adrogue","-34.8","-58.3833","https://kracr.iiitd.edu.in/Location#argentina"
"https://kracr.iiitd.edu.in/Location#avellaneda","-34.6625","-58.3678","https://kracr.iiitd.edu.in/Location#argentina"
"https://kracr.iiitd.edu.in/Location#tapiales","-34.7058","-58.5047","https://kracr.iiitd.edu.in/Location#argentina"
"https://kracr.iiitd.edu.in/Location#donbosco","-34.7","-58.2833","https://kracr.iiitd.edu.in/Location#argentina"
"https://kracr.iiitd.edu.in/Location#billinghurst","-34.5667","-58.5333","https://kracr.iiitd.edu.in/Location#argentina"
"https://kracr.iiitd.edu.in/Location#rawson","-43.3","-65.1","https://kracr.iiitd.edu.in/Location#argentina"
"https://kracr.iiitd.edu.in/Location#villasarmiento","-34.6333","-58.5667","https://kracr.iiitd.edu.in/Location#argentina"
"https://kracr.iiitd.edu.in/Location#lalucila","-34.4833","-58.4833","https://kracr.iiitd.edu.in/Location#argentina"
"https://kracr.iiitd.edu.in/Location#aldobonzi","-34.7083","-58.5181","https://kracr.iiitd.edu.in/Location#argentina"
"https://kracr.iiitd.edu.in/Location#acasusso","-34.4667","-58.5167","https://kracr.iiitd.edu.in/Location#argentina"
"https://kracr.iiitd.edu.in/Location#malvinasargentinas","-31.3697","-64.0531","https://kracr.iiitd.edu.in/Location#argentina"
"https://kracr.iiitd.edu.in/Location#trelew","-43.25","-65.3","https://kracr.iiitd.edu.in/Location#argentina"
"https://kracr.iiitd.edu.in/Location#rafaela","-31.2667","-61.4833","https://kracr.iiitd.edu.in/Location#argentina"
"https://kracr.iiitd.edu.in/Location#necochea","-38.55","-58.7333","https://kracr.iiitd.edu.in/Location#argentina"
"https://kracr.iiitd.edu.in/Location#chimbas","-31.5","-68.5319","https://kracr.iiitd.edu.in/Location#argentina"
"https://kracr.iiitd.edu.in/Location#berisso","-34.8728","-57.8858","https://kracr.iiitd.edu.in/Location#argentina"
"https://kracr.iiitd.edu.in/Location#pergamino","-33.8836","-60.5669","https://kracr.iiitd.edu.in/Location#argentina"
"https://kracr.iiitd.edu.in/Location#cipolletti","-38.9333","-67.9833","https://kracr.iiitd.edu.in/Location#argentina"
"https://kracr.iiitd.edu.in/Location#campana","-34.1667","-58.9167","https://kracr.iiitd.edu.in/Location#argentina"
"https://kracr.iiitd.edu.in/Location#rivadavia","-31.5303","-68.5947","https://kracr.iiitd.edu.in/Location#argentina"
"https://kracr.iiitd.edu.in/Location#rivadavia","-33.1833","-68.4667","https://kracr.iiitd.edu.in/Location#argentina"
"https://kracr.iiitd.edu.in/Location#pilar","-34.4588","-58.9142","https://kracr.iiitd.edu.in/Location#argentina"
"https://kracr.iiitd.edu.in/Location#venadotuerto","-33.75","-61.9667","https://kracr.iiitd.edu.in/Location#argentina"
"https://kracr.iiitd.edu.in/Location#reconquista","-29.1443","-59.6438","https://kracr.iiitd.edu.in/Location#argentina"
"https://kracr.iiitd.edu.in/Location#goya","-29.1333","-59.25","https://kracr.iiitd.edu.in/Location#argentina"
"https://kracr.iiitd.edu.in/Location#sanpedro","-33.6794","-59.6669","https://kracr.iiitd.edu.in/Location#argentina"
"https://kracr.iiitd.edu.in/Location#dontorcuato","-34.5","-58.6167","https://kracr.iiitd.edu.in/Location#argentina"
"https://kracr.iiitd.edu.in/Location#mercedes","-34.65","-59.4333","https://kracr.iiitd.edu.in/Location#argentina"
"https://kracr.iiitd.edu.in/Location#tartagal","-22.5","-63.8333","https://kracr.iiitd.edu.in/Location#argentina"
"https://kracr.iiitd.edu.in/Location#villacarlospaz","-31.4","-64.5167","https://kracr.iiitd.edu.in/Location#argentina"
"https://kracr.iiitd.edu.in/Location#sanfrancisco","-31.4356","-62.0714","https://kracr.iiitd.edu.in/Location#argentina"
"https://kracr.iiitd.edu.in/Location#sanpedro","-24.2196","-64.87","https://kracr.iiitd.edu.in/Location#argentina"
"https://kracr.iiitd.edu.in/Location#puntaalta","-38.88","-62.075","https://kracr.iiitd.edu.in/Location#argentina"
"https://kracr.iiitd.edu.in/Location#chivilcoy","-34.9","-60.0167","https://kracr.iiitd.edu.in/Location#argentina"
"https://kracr.iiitd.edu.in/Location#eldorado","-26.4","-54.6333","https://kracr.iiitd.edu.in/Location#argentina"
"https://kracr.iiitd.edu.in/Location#generalpico","-35.6667","-63.7333","https://kracr.iiitd.edu.in/Location#argentina"
"https://kracr.iiitd.edu.in/Location#azul","-36.7833","-59.85","https://kracr.iiitd.edu.in/Location#argentina"
"https://kracr.iiitd.edu.in/Location#ensenada","-34.8644","-57.9103","https://kracr.iiitd.edu.in/Location#argentina"
"https://kracr.iiitd.edu.in/Location#barranqueras","-27.4833","-58.9333","https://kracr.iiitd.edu.in/Location#argentina"
"https://kracr.iiitd.edu.in/Location#guernica","-34.9167","-58.3833","https://kracr.iiitd.edu.in/Location#argentina"
"https://kracr.iiitd.edu.in/Location#clorinda","-25.2833","-57.7167","https://kracr.iiitd.edu.in/Location#argentina"
"https://kracr.iiitd.edu.in/Location#cruzdeleje","-30.7333","-64.8","https://kracr.iiitd.edu.in/Location#argentina"
"https://kracr.iiitd.edu.in/Location#caletaolivia","-46.4333","-67.5333","https://kracr.iiitd.edu.in/Location#argentina"
"https://kracr.iiitd.edu.in/Location#eltalardepacheco","-34.4719","-58.655","https://kracr.iiitd.edu.in/Location#argentina"
"https://kracr.iiitd.edu.in/Location#yerbabuena","-26.8167","-65.3167","https://kracr.iiitd.edu.in/Location#argentina"
"https://kracr.iiitd.edu.in/Location#villaguay","-31.85","-59.0167","https://kracr.iiitd.edu.in/Location#argentina"
"https://kracr.iiitd.edu.in/Location#lareja","-34.6394","-58.8283","https://kracr.iiitd.edu.in/Location#argentina"
"https://kracr.iiitd.edu.in/Location#altagracia","-31.6667","-64.4333","https://kracr.iiitd.edu.in/Location#argentina"
"https://kracr.iiitd.edu.in/Location#sanlorenzo","-28.12","-58.77","https://kracr.iiitd.edu.in/Location#argentina"
"https://kracr.iiitd.edu.in/Location#catriel","-37.8667","-67.8333","https://kracr.iiitd.edu.in/Location#argentina"
"https://kracr.iiitd.edu.in/Location#tresarroyos","-38.3667","-60.2667","https://kracr.iiitd.edu.in/Location#argentina"
"https://kracr.iiitd.edu.in/Location#sanlorenzo","-32.75","-60.7333","https://kracr.iiitd.edu.in/Location#argentina"
"https://kracr.iiitd.edu.in/Location#pinamar","-37.1","-56.85","https://kracr.iiitd.edu.in/Location#argentina"
"https://kracr.iiitd.edu.in/Location#balcarce","-37.8456","-58.2578","https://kracr.iiitd.edu.in/Location#argentina"
"https://kracr.iiitd.edu.in/Location#generalpacheco","-34.45","-58.65","https://kracr.iiitd.edu.in/Location#argentina"
"https://kracr.iiitd.edu.in/Location#esperanza","-31.4167","-60.9333","https://kracr.iiitd.edu.in/Location#argentina"
"https://kracr.iiitd.edu.in/Location#pasodeloslibres","-29.7167","-57.0833","https://kracr.iiitd.edu.in/Location#argentina"
"https://kracr.iiitd.edu.in/Location#gualeguay","-33.15","-59.3333","https://kracr.iiitd.edu.in/Location#argentina"
"https://kracr.iiitd.edu.in/Location#marcospaz","-34.7667","-58.8333","https://kracr.iiitd.edu.in/Location#argentina"
"https://kracr.iiitd.edu.in/Location#alderetes","-26.8167","-65.1333","https://kracr.iiitd.edu.in/Location#argentina"
"https://kracr.iiitd.edu.in/Location#chacabuco","-34.6333","-60.4667","https://kracr.iiitd.edu.in/Location#argentina"
"https://kracr.iiitd.edu.in/Location#granaderobaigorria","-32.85","-60.7","https://kracr.iiitd.edu.in/Location#argentina"
"https://kracr.iiitd.edu.in/Location#esquel","-42.9","-71.3167","https://kracr.iiitd.edu.in/Location#argentina"
"https://kracr.iiitd.edu.in/Location#nuevedejulio","-35.45","-60.8833","https://kracr.iiitd.edu.in/Location#argentina"
"https://kracr.iiitd.edu.in/Location#casilda","-33.05","-61.1667","https://kracr.iiitd.edu.in/Location#argentina"
"https://kracr.iiitd.edu.in/Location#centenario","-38.8","-68.1333","https://kracr.iiitd.edu.in/Location#argentina"
"https://kracr.iiitd.edu.in/Location#bellville","-32.6333","-62.6833","https://kracr.iiitd.edu.in/Location#argentina"
"https://kracr.iiitd.edu.in/Location#chilecito","-29.1667","-67.5","https://kracr.iiitd.edu.in/Location#argentina"
"https://kracr.iiitd.edu.in/Location#mercedes","-29.2","-58.0833","https://kracr.iiitd.edu.in/Location#argentina"
"https://kracr.iiitd.edu.in/Location#citybell","-34.85","-58.05","https://kracr.iiitd.edu.in/Location#argentina"
"https://kracr.iiitd.edu.in/Location#bragado","-35.1167","-60.5","https://kracr.iiitd.edu.in/Location#argentina"
"https://kracr.iiitd.edu.in/Location#lacalera","-31.3439","-64.3353","https://kracr.iiitd.edu.in/Location#argentina"
"https://kracr.iiitd.edu.in/Location#plottier","-38.95","-68.2333","https://kracr.iiitd.edu.in/Location#argentina"
"https://kracr.iiitd.edu.in/Location#aguilares","-27.4333","-65.6167","https://kracr.iiitd.edu.in/Location#argentina"
"https://kracr.iiitd.edu.in/Location#quitilipi","-26.8667","-60.2167","https://kracr.iiitd.edu.in/Location#argentina"
"https://kracr.iiitd.edu.in/Location#zapala","-38.9","-70.0667","https://kracr.iiitd.edu.in/Location#argentina"
"https://kracr.iiitd.edu.in/Location#lobos","-35.1833","-59.0833","https://kracr.iiitd.edu.in/Location#argentina"
"https://kracr.iiitd.edu.in/Location#pichanal","-23.3167","-64.2167","https://kracr.iiitd.edu.in/Location#argentina"
"https://kracr.iiitd.edu.in/Location#gobernadorvirasora","-28.05","-56.0333","https://kracr.iiitd.edu.in/Location#argentina"
"https://kracr.iiitd.edu.in/Location#victoria","-32.6167","-60.1667","https://kracr.iiitd.edu.in/Location#argentina"
"https://kracr.iiitd.edu.in/Location#miramar","-38.2667","-57.8333","https://kracr.iiitd.edu.in/Location#argentina"
"https://kracr.iiitd.edu.in/Location#villaregina","-39.1","-67.0667","https://kracr.iiitd.edu.in/Location#argentina"
"https://kracr.iiitd.edu.in/Location#generalalvear","-34.9667","-67.7","https://kracr.iiitd.edu.in/Location#argentina"
"https://kracr.iiitd.edu.in/Location#villadolores","-31.9333","-65.2","https://kracr.iiitd.edu.in/Location#argentina"
"https://kracr.iiitd.edu.in/Location#villagesell","-37.2556","-56.9681","https://kracr.iiitd.edu.in/Location#argentina"
"https://kracr.iiitd.edu.in/Location#bellavista","-28.4667","-59.05","https://kracr.iiitd.edu.in/Location#argentina"
"https://kracr.iiitd.edu.in/Location#baradero","-33.8","-59.5167","https://kracr.iiitd.edu.in/Location#argentina"
"https://kracr.iiitd.edu.in/Location#villaallende","-31.3","-64.3","https://kracr.iiitd.edu.in/Location#argentina"
"https://kracr.iiitd.edu.in/Location#caucete","-31.65","-68.2833","https://kracr.iiitd.edu.in/Location#argentina"
"https://kracr.iiitd.edu.in/Location#lincoln","-34.85","-61.5167","https://kracr.iiitd.edu.in/Location#argentina"
"https://kracr.iiitd.edu.in/Location#lasflores","-36.0139","-59.1","https://kracr.iiitd.edu.in/Location#argentina"
"https://kracr.iiitd.edu.in/Location#charata","-27.2167","-61.2","https://kracr.iiitd.edu.in/Location#argentina"
"https://kracr.iiitd.edu.in/Location#arrecifes","-34.0667","-60.1167","https://kracr.iiitd.edu.in/Location#argentina"
"https://kracr.iiitd.edu.in/Location#rosariodelafrontera","-25.8","-64.9667","https://kracr.iiitd.edu.in/Location#argentina"
"https://kracr.iiitd.edu.in/Location#dolores","-36.3167","-57.6667","https://kracr.iiitd.edu.in/Location#argentina"
"https://kracr.iiitd.edu.in/Location#firmat","-33.45","-61.4833","https://kracr.iiitd.edu.in/Location#argentina"
"https://kracr.iiitd.edu.in/Location#tresisletas","-26.35","-60.4167","https://kracr.iiitd.edu.in/Location#argentina"
"https://kracr.iiitd.edu.in/Location#lapaz","-30.75","-59.65","https://kracr.iiitd.edu.in/Location#argentina"
"https://kracr.iiitd.edu.in/Location#funes","-32.9167","-60.8167","https://kracr.iiitd.edu.in/Location#argentina"
"https://kracr.iiitd.edu.in/Location#montecaseros","-30.25","-57.65","https://kracr.iiitd.edu.in/Location#argentina"
"https://kracr.iiitd.edu.in/Location#veinticincodemayo","-35.4167","-60.1667","https://kracr.iiitd.edu.in/Location#argentina"
"https://kracr.iiitd.edu.in/Location#avellaneda","-29.1175","-59.6583","https://kracr.iiitd.edu.in/Location#argentina"
"https://kracr.iiitd.edu.in/Location#melchorromero","-34.9492","-58.0472","https://kracr.iiitd.edu.in/Location#argentina"
"https://kracr.iiitd.edu.in/Location#monteros","-27.1667","-65.5","https://kracr.iiitd.edu.in/Location#argentina"
"https://kracr.iiitd.edu.in/Location#allen","-38.9667","-67.8333","https://kracr.iiitd.edu.in/Location#argentina"
"https://kracr.iiitd.edu.in/Location#cincosaltos","-38.8167","-68.0667","https://kracr.iiitd.edu.in/Location#argentina"
"https://kracr.iiitd.edu.in/Location#arroyito","-31.4167","-63.05","https://kracr.iiitd.edu.in/Location#argentina"
"https://kracr.iiitd.edu.in/Location#machagai","-26.9167","-60.0333","https://kracr.iiitd.edu.in/Location#argentina"
"https://kracr.iiitd.edu.in/Location#sanjusto","-30.7833","-60.5833","https://kracr.iiitd.edu.in/Location#argentina"
"https://kracr.iiitd.edu.in/Location#rosariodelerma","-24.9833","-65.5833","https://kracr.iiitd.edu.in/Location#argentina"
"https://kracr.iiitd.edu.in/Location#alejandrokorn","-34.9667","-58.3667","https://kracr.iiitd.edu.in/Location#argentina"
"https://kracr.iiitd.edu.in/Location#sanisidrodelules","-26.9333","-65.35","https://kracr.iiitd.edu.in/Location#argentina"
"https://kracr.iiitd.edu.in/Location#carloscasares","-35.6167","-61.3667","https://kracr.iiitd.edu.in/Location#argentina"
"https://kracr.iiitd.edu.in/Location#elcalafate","-50.3333","-72.2833","https://kracr.iiitd.edu.in/Location#argentina"
"https://kracr.iiitd.edu.in/Location#picotruncado","-46.795","-67.955","https://kracr.iiitd.edu.in/Location#argentina"
"https://kracr.iiitd.edu.in/Location#matheu","-34.3667","-58.8333","https://kracr.iiitd.edu.in/Location#argentina"
"https://kracr.iiitd.edu.in/Location#arroyoseco","-33.1667","-60.5","https://kracr.iiitd.edu.in/Location#argentina"
"https://kracr.iiitd.edu.in/Location#profesorsalvadormazza","-22.05","-63.7","https://kracr.iiitd.edu.in/Location#argentina"
"https://kracr.iiitd.edu.in/Location#sunchales","-30.9333","-61.5667","https://kracr.iiitd.edu.in/Location#argentina"
"https://kracr.iiitd.edu.in/Location#laboulaye","-34.1167","-63.4","https://kracr.iiitd.edu.in/Location#argentina"
"https://kracr.iiitd.edu.in/Location#carmendepatagones","-40.7833","-62.9667","https://kracr.iiitd.edu.in/Location#argentina"
"https://kracr.iiitd.edu.in/Location#brandsen","-35.1667","-58.2167","https://kracr.iiitd.edu.in/Location#argentina"
"https://kracr.iiitd.edu.in/Location#crespo","-32.0333","-60.3167","https://kracr.iiitd.edu.in/Location#argentina"
"https://kracr.iiitd.edu.in/Location#vera","-29.4667","-60.2167","https://kracr.iiitd.edu.in/Location#argentina"
"https://kracr.iiitd.edu.in/Location#diamante","-32.0667","-60.65","https://kracr.iiitd.edu.in/Location#argentina"
"https://kracr.iiitd.edu.in/Location#villanueva","-32.4331","-63.2475","https://kracr.iiitd.edu.in/Location#argentina"
"https://kracr.iiitd.edu.in/Location#carlosspegazzini","-34.8833","-58.5667","https://kracr.iiitd.edu.in/Location#argentina"
"https://kracr.iiitd.edu.in/Location#rufino","-34.2667","-62.7","https://kracr.iiitd.edu.in/Location#argentina"
"https://kracr.iiitd.edu.in/Location#unquillo","-31.2333","-64.3167","https://kracr.iiitd.edu.in/Location#argentina"
"https://kracr.iiitd.edu.in/Location#saladas","-28.25","-58.6167","https://kracr.iiitd.edu.in/Location#argentina"
"https://kracr.iiitd.edu.in/Location#coronda","-31.9667","-60.9167","https://kracr.iiitd.edu.in/Location#argentina"
"https://kracr.iiitd.edu.in/Location#generaljuanmadariaga","-37.0167","-57.1333","https://kracr.iiitd.edu.in/Location#argentina"
"https://kracr.iiitd.edu.in/Location#generaldeheza","-32.7564","-63.7889","https://kracr.iiitd.edu.in/Location#argentina"
"https://kracr.iiitd.edu.in/Location#lasheras","-46.55","-68.95","https://kracr.iiitd.edu.in/Location#argentina"
"https://kracr.iiitd.edu.in/Location#santaelena","-30.95","-59.8","https://kracr.iiitd.edu.in/Location#argentina"
"https://kracr.iiitd.edu.in/Location#cerrillos","-24.9","-65.4833","https://kracr.iiitd.edu.in/Location#argentina"
"https://kracr.iiitd.edu.in/Location#puertorico","-26.8","-55.0167","https://kracr.iiitd.edu.in/Location#argentina"
"https://kracr.iiitd.edu.in/Location#veinticincodemayo","-37.7712","-67.7174","https://kracr.iiitd.edu.in/Location#argentina"
"https://kracr.iiitd.edu.in/Location#ayacucho","-37.1333","-58.4667","https://kracr.iiitd.edu.in/Location#argentina"
"https://kracr.iiitd.edu.in/Location#morteros","-30.7","-62","https://kracr.iiitd.edu.in/Location#argentina"
"https://kracr.iiitd.edu.in/Location#laquiaca","-22.1042","-65.5972","https://kracr.iiitd.edu.in/Location#argentina"
"https://kracr.iiitd.edu.in/Location#daireaux","-36.6","-61.75","https://kracr.iiitd.edu.in/Location#argentina"
"https://kracr.iiitd.edu.in/Location#lafalda","-31.0833","-64.5","https://kracr.iiitd.edu.in/Location#argentina"
"https://kracr.iiitd.edu.in/Location#generalvillegas","-35.0333","-63.0167","https://kracr.iiitd.edu.in/Location#argentina"
"https://kracr.iiitd.edu.in/Location#sanantoniooeste","-40.7333","-64.95","https://kracr.iiitd.edu.in/Location#argentina"
"https://kracr.iiitd.edu.in/Location#federal","-30.95","-58.8","https://kracr.iiitd.edu.in/Location#argentina"
"https://kracr.iiitd.edu.in/Location#coquimbito","-32.9667","-68.75","https://kracr.iiitd.edu.in/Location#argentina"
"https://kracr.iiitd.edu.in/Location#santarosa","-33.25","-68.15","https://kracr.iiitd.edu.in/Location#argentina"
"https://kracr.iiitd.edu.in/Location#generalpinedo","-27.3167","-61.2833","https://kracr.iiitd.edu.in/Location#argentina"
"https://kracr.iiitd.edu.in/Location#wanda","-25.9667","-54.5833","https://kracr.iiitd.edu.in/Location#argentina"
"https://kracr.iiitd.edu.in/Location#villadelrosario","-31.5833","-63.5333","https://kracr.iiitd.edu.in/Location#argentina"
"https://kracr.iiitd.edu.in/Location#sanluisdelpalmar","-27.5167","-58.5667","https://kracr.iiitd.edu.in/Location#argentina"
"https://kracr.iiitd.edu.in/Location#villaparanacito","-33.7","-58.6833","https://kracr.iiitd.edu.in/Location#argentina"
"https://kracr.iiitd.edu.in/Location#bellavista","-27.0333","-65.3","https://kracr.iiitd.edu.in/Location#argentina"
"https://kracr.iiitd.edu.in/Location#villaojodeagua","-29.5167","-63.7","https://kracr.iiitd.edu.in/Location#argentina"
"https://kracr.iiitd.edu.in/Location#pilar","-31.6833","-63.9","https://kracr.iiitd.edu.in/Location#argentina"
"https://kracr.iiitd.edu.in/Location#carmendeareco","-34.3858","-59.8294","https://kracr.iiitd.edu.in/Location#argentina"
"https://kracr.iiitd.edu.in/Location#tostado","-29.2333","-61.7667","https://kracr.iiitd.edu.in/Location#argentina"
"https://kracr.iiitd.edu.in/Location#ceres","-29.8667","-61.95","https://kracr.iiitd.edu.in/Location#argentina"
"https://kracr.iiitd.edu.in/Location#puertodeseado","-47.75","-65.9167","https://kracr.iiitd.edu.in/Location#argentina"
"https://kracr.iiitd.edu.in/Location#lasrosas","-32.4833","-61.5833","https://kracr.iiitd.edu.in/Location#argentina"
"https://kracr.iiitd.edu.in/Location#sanjavier","-30.5833","-59.95","https://kracr.iiitd.edu.in/Location#argentina"
"https://kracr.iiitd.edu.in/Location#generalbelgrano","-35.7667","-58.5","https://kracr.iiitd.edu.in/Location#argentina"
"https://kracr.iiitd.edu.in/Location#generalviamonte","-35","-61.0333","https://kracr.iiitd.edu.in/Location#argentina"
"https://kracr.iiitd.edu.in/Location#ingenieromaschwitz","-34.3667","-58.75","https://kracr.iiitd.edu.in/Location#argentina"
"https://kracr.iiitd.edu.in/Location#empedrado","-27.9333","-58.7833","https://kracr.iiitd.edu.in/Location#argentina"
"https://kracr.iiitd.edu.in/Location#plazahuincul","-38.9338","-69.1987","https://kracr.iiitd.edu.in/Location#argentina"
"https://kracr.iiitd.edu.in/Location#oncativo","-31.9167","-63.6667","https://kracr.iiitd.edu.in/Location#argentina"
"https://kracr.iiitd.edu.in/Location#generalenriquemosconi","-22.6","-63.8167","https://kracr.iiitd.edu.in/Location#argentina"
"https://kracr.iiitd.edu.in/Location#chosmalal","-37.3833","-70.2667","https://kracr.iiitd.edu.in/Location#argentina"
"https://kracr.iiitd.edu.in/Location#villanueva","-32.9","-68.7667","https://kracr.iiitd.edu.in/Location#argentina"
"https://kracr.iiitd.edu.in/Location#chamical","-30.3667","-66.3167","https://kracr.iiitd.edu.in/Location#argentina"
"https://kracr.iiitd.edu.in/Location#santarosadecalamuchita","-32.0667","-64.5333","https://kracr.iiitd.edu.in/Location#argentina"
"https://kracr.iiitd.edu.in/Location#generallasheras","-34.9333","-58.95","https://kracr.iiitd.edu.in/Location#argentina"
"https://kracr.iiitd.edu.in/Location#rosariodeltala","-32.3","-59.1333","https://kracr.iiitd.edu.in/Location#argentina"
"https://kracr.iiitd.edu.in/Location#sansalvador","-31.6167","-58.5","https://kracr.iiitd.edu.in/Location#argentina"
"https://kracr.iiitd.edu.in/Location#generalacha","-37.3833","-64.6","https://kracr.iiitd.edu.in/Location#argentina"
"https://kracr.iiitd.edu.in/Location#lacarlota","-33.4333","-63.3","https://kracr.iiitd.edu.in/Location#argentina"
"https://kracr.iiitd.edu.in/Location#montequemado","-25.8036","-62.8303","https://kracr.iiitd.edu.in/Location#argentina"
"https://kracr.iiitd.edu.in/Location#lagunapaiva","-31.3039","-60.6589","https://kracr.iiitd.edu.in/Location#argentina"
"https://kracr.iiitd.edu.in/Location#lasparejas","-32.6833","-61.5333","https://kracr.iiitd.edu.in/Location#argentina"
"https://kracr.iiitd.edu.in/Location#laslomitas","-24.7072","-60.5944","https://kracr.iiitd.edu.in/Location#argentina"
"https://kracr.iiitd.edu.in/Location#presidenciadelaplaza","-26.9833","-59.8333","https://kracr.iiitd.edu.in/Location#argentina"
"https://kracr.iiitd.edu.in/Location#justodaract","-33.8667","-65.1667","https://kracr.iiitd.edu.in/Location#argentina"
"https://kracr.iiitd.edu.in/Location#villaberthet","-27.2667","-60.4167","https://kracr.iiitd.edu.in/Location#argentina"
"https://kracr.iiitd.edu.in/Location#recreo","-29.2667","-65.0667","https://kracr.iiitd.edu.in/Location#argentina"
"https://kracr.iiitd.edu.in/Location#cafayate","-26.0833","-65.9667","https://kracr.iiitd.edu.in/Location#argentina"
"https://kracr.iiitd.edu.in/Location#oliva","-32.0333","-63.5667","https://kracr.iiitd.edu.in/Location#argentina"
"https://kracr.iiitd.edu.in/Location#navarro","-35.0167","-59.2667","https://kracr.iiitd.edu.in/Location#argentina"
"https://kracr.iiitd.edu.in/Location#coroneldorrego","-38.7","-61.2667","https://kracr.iiitd.edu.in/Location#argentina"
"https://kracr.iiitd.edu.in/Location#tinogasta","-28.0667","-67.5667","https://kracr.iiitd.edu.in/Location#argentina"
"https://kracr.iiitd.edu.in/Location#humahuaca","-23.2","-65.35","https://kracr.iiitd.edu.in/Location#argentina"
"https://kracr.iiitd.edu.in/Location#capilladelmonte","-30.85","-64.5167","https://kracr.iiitd.edu.in/Location#argentina"
"https://kracr.iiitd.edu.in/Location#armstrong","-32.7833","-61.6","https://kracr.iiitd.edu.in/Location#argentina"
"https://kracr.iiitd.edu.in/Location#hernando","-32.4167","-63.7333","https://kracr.iiitd.edu.in/Location#argentina"
"https://kracr.iiitd.edu.in/Location#sanbernardo","-27.2667","-60.7","https://kracr.iiitd.edu.in/Location#argentina"
"https://kracr.iiitd.edu.in/Location#sancarloscentro","-31.7333","-61.1","https://kracr.iiitd.edu.in/Location#argentina"
"https://kracr.iiitd.edu.in/Location#villalaangostura","-40.7625","-71.6463","https://kracr.iiitd.edu.in/Location#argentina"
"https://kracr.iiitd.edu.in/Location#villanougues","-26.8578","-65.3756","https://kracr.iiitd.edu.in/Location#argentina"
"https://kracr.iiitd.edu.in/Location#sanroque","-28.5667","-58.7167","https://kracr.iiitd.edu.in/Location#argentina"
"https://kracr.iiitd.edu.in/Location#sarmiento","-45.6","-69.0833","https://kracr.iiitd.edu.in/Location#argentina"
"https://kracr.iiitd.edu.in/Location#campolargo","-26.8","-60.8333","https://kracr.iiitd.edu.in/Location#argentina"
"https://kracr.iiitd.edu.in/Location#ingenierowhite","-38.7667","-62.2667","https://kracr.iiitd.edu.in/Location#argentina"
"https://kracr.iiitd.edu.in/Location#frontera","-31.4278","-62.0619","https://kracr.iiitd.edu.in/Location#argentina"
"https://kracr.iiitd.edu.in/Location#corzuela","-26.9333","-60.9667","https://kracr.iiitd.edu.in/Location#argentina"
"https://kracr.iiitd.edu.in/Location#corraldebustos","-33.2833","-62.2","https://kracr.iiitd.edu.in/Location#argentina"
"https://kracr.iiitd.edu.in/Location#leones","-32.6617","-62.2967","https://kracr.iiitd.edu.in/Location#argentina"
"https://kracr.iiitd.edu.in/Location#villaelisa","-32.1667","-58.4","https://kracr.iiitd.edu.in/Location#argentina"
"https://kracr.iiitd.edu.in/Location#choelechoel","-39.2667","-65.6833","https://kracr.iiitd.edu.in/Location#argentina"
"https://kracr.iiitd.edu.in/Location#laleonesa","-27.05","-58.7167","https://kracr.iiitd.edu.in/Location#argentina"
"https://kracr.iiitd.edu.in/Location#brinkmann","-30.8669","-62.0336","https://kracr.iiitd.edu.in/Location#argentina"
"https://kracr.iiitd.edu.in/Location#alcorta","-33.5333","-61.1167","https://kracr.iiitd.edu.in/Location#argentina"
"https://kracr.iiitd.edu.in/Location#ciudaddeloreto","-28.3","-64.2","https://kracr.iiitd.edu.in/Location#argentina"
"https://kracr.iiitd.edu.in/Location#generalalvear","-36.0333","-60.0167","https://kracr.iiitd.edu.in/Location#argentina"
"https://kracr.iiitd.edu.in/Location#puertotirol","-27.3667","-59.0667","https://kracr.iiitd.edu.in/Location#argentina"
"https://kracr.iiitd.edu.in/Location#basavilbaso","-32.3667","-58.8833","https://kracr.iiitd.edu.in/Location#argentina"
"https://kracr.iiitd.edu.in/Location#henderson","-36.2833","-61.7167","https://kracr.iiitd.edu.in/Location#argentina"
"https://kracr.iiitd.edu.in/Location#lapaz","-33.4667","-67.55","https://kracr.iiitd.edu.in/Location#argentina"
"https://kracr.iiitd.edu.in/Location#abrapampa","-22.7167","-65.7","https://kracr.iiitd.edu.in/Location#argentina"
"https://kracr.iiitd.edu.in/Location#castelli","-25.95","-60.6167","https://kracr.iiitd.edu.in/Location#argentina"
"https://kracr.iiitd.edu.in/Location#magdalena","-35.0833","-57.5167","https://kracr.iiitd.edu.in/Location#argentina"
"https://kracr.iiitd.edu.in/Location#monterico","-24.4514","-65.1667","https://kracr.iiitd.edu.in/Location#argentina"
"https://kracr.iiitd.edu.in/Location#embalse","-32.1833","-64.4167","https://kracr.iiitd.edu.in/Location#argentina"
"https://kracr.iiitd.edu.in/Location#sauce","-30.0667","-58.7667","https://kracr.iiitd.edu.in/Location#argentina"
"https://kracr.iiitd.edu.in/Location#radatilly","-45.9333","-67.5333","https://kracr.iiitd.edu.in/Location#argentina"
"https://kracr.iiitd.edu.in/Location#villaaberastain","-31.65","-68.5833","https://kracr.iiitd.edu.in/Location#argentina"
"https://kracr.iiitd.edu.in/Location#santasylvina","-27.7833","-61.15","https://kracr.iiitd.edu.in/Location#argentina"
"https://kracr.iiitd.edu.in/Location#coroneldugraty","-27.6667","-60.9333","https://kracr.iiitd.edu.in/Location#argentina"
"https://kracr.iiitd.edu.in/Location#urdinarrain","-32.6856","-58.8867","https://kracr.iiitd.edu.in/Location#argentina"
"https://kracr.iiitd.edu.in/Location#pampadelinfierno","-26.5167","-61.1667","https://kracr.iiitd.edu.in/Location#argentina"
"https://kracr.iiitd.edu.in/Location#rinconada","-22.4333","-66.1667","https://kracr.iiitd.edu.in/Location#argentina"
"https://kracr.iiitd.edu.in/Location#comandanteluispiedrabuena","-49.983","-68.91","https://kracr.iiitd.edu.in/Location#argentina"
"https://kracr.iiitd.edu.in/Location#ingenierojacobacci","-41.3","-69.5833","https://kracr.iiitd.edu.in/Location#argentina"
"https://kracr.iiitd.edu.in/Location#veintiochodenoviembre","-51.65","-72.3","https://kracr.iiitd.edu.in/Location#argentina"
"https://kracr.iiitd.edu.in/Location#chepes","-31.35","-66.6","https://kracr.iiitd.edu.in/Location#argentina"
"https://kracr.iiitd.edu.in/Location#generalconesa","-40.1","-64.4167","https://kracr.iiitd.edu.in/Location#argentina"
"https://kracr.iiitd.edu.in/Location#sanantoniodeloscobres","-24.2178","-66.32","https://kracr.iiitd.edu.in/Location#argentina"
"https://kracr.iiitd.edu.in/Location#peritomoreno","-46.5886","-70.9242","https://kracr.iiitd.edu.in/Location#argentina"
"https://kracr.iiitd.edu.in/Location#gobernadorgregores","-48.7667","-70.25","https://kracr.iiitd.edu.in/Location#argentina"
"https://kracr.iiitd.edu.in/Location#victorica","-36.2167","-65.45","https://kracr.iiitd.edu.in/Location#argentina"
"https://kracr.iiitd.edu.in/Location#comandantefontana","-25.3333","-59.6833","https://kracr.iiitd.edu.in/Location#argentina"
"https://kracr.iiitd.edu.in/Location#laslajas","-38.6","-70.3","https://kracr.iiitd.edu.in/Location#argentina"
"https://kracr.iiitd.edu.in/Location#trancas","-26.2172","-65.2831","https://kracr.iiitd.edu.in/Location#argentina"
"https://kracr.iiitd.edu.in/Location#rodeo","-30.2164","-69.1394","https://kracr.iiitd.edu.in/Location#argentina"
"https://kracr.iiitd.edu.in/Location#chumbicha","-28.8667","-66.2333","https://kracr.iiitd.edu.in/Location#argentina"
"https://kracr.iiitd.edu.in/Location#sierracolorada","-40.5833","-67.8","https://kracr.iiitd.edu.in/Location#argentina"
"https://kracr.iiitd.edu.in/Location#susques","-23.4167","-66.4833","https://kracr.iiitd.edu.in/Location#argentina"
"https://kracr.iiitd.edu.in/Location#comallo","-41.0333","-70.2667","https://kracr.iiitd.edu.in/Location#argentina"
"https://kracr.iiitd.edu.in/Location#gastre","-42.2667","-69.2167","https://kracr.iiitd.edu.in/Location#argentina"
"https://kracr.iiitd.edu.in/Location#telsen","-42.3833","-66.95","https://kracr.iiitd.edu.in/Location#argentina"
"https://kracr.iiitd.edu.in/Location#pedroluro","-39.5","-62.6833","https://kracr.iiitd.edu.in/Location#argentina"
"https://kracr.iiitd.edu.in/Location#montecristo","-31.3431","-63.9444","https://kracr.iiitd.edu.in/Location#argentina"
"https://kracr.iiitd.edu.in/Location#romang","-29.5","-59.7667","https://kracr.iiitd.edu.in/Location#argentina"
"https://kracr.iiitd.edu.in/Location#viale","-31.8667","-60.0167","https://kracr.iiitd.edu.in/Location#argentina"
"https://kracr.iiitd.edu.in/Location#uspallata","-32.5667","-69.3167","https://kracr.iiitd.edu.in/Location#argentina"
"https://kracr.iiitd.edu.in/Location#darregueira","-37.6996","-63.1666","https://kracr.iiitd.edu.in/Location#argentina"
"https://kracr.iiitd.edu.in/Location#villalonga","-39.8829","-62.5833","https://kracr.iiitd.edu.in/Location#argentina"
"https://kracr.iiitd.edu.in/Location#villarumipal","-32.1879","-64.4803","https://kracr.iiitd.edu.in/Location#argentina"
"https://kracr.iiitd.edu.in/Location#losblancos","-23.6","-62.6","https://kracr.iiitd.edu.in/Location#argentina"
"https://kracr.iiitd.edu.in/Location#yerevan","40.1814","44.5144","https://kracr.iiitd.edu.in/Location#armenia"
"https://kracr.iiitd.edu.in/Location#gyumri","40.7894","43.8475","https://kracr.iiitd.edu.in/Location#armenia"
"https://kracr.iiitd.edu.in/Location#vanadzor","40.8128","44.4883","https://kracr.iiitd.edu.in/Location#armenia"
"https://kracr.iiitd.edu.in/Location#hrazdan","40.5","44.7667","https://kracr.iiitd.edu.in/Location#armenia"
"https://kracr.iiitd.edu.in/Location#abovyan","40.2739","44.6256","https://kracr.iiitd.edu.in/Location#armenia"
"https://kracr.iiitd.edu.in/Location#kapan","39.2011","46.415","https://kracr.iiitd.edu.in/Location#armenia"
"https://kracr.iiitd.edu.in/Location#armavir","40.15","44.04","https://kracr.iiitd.edu.in/Location#armenia"
"https://kracr.iiitd.edu.in/Location#charentsavan","40.4097","44.6431","https://kracr.iiitd.edu.in/Location#armenia"
"https://kracr.iiitd.edu.in/Location#artashat","39.9539","44.5506","https://kracr.iiitd.edu.in/Location#armenia"
"https://kracr.iiitd.edu.in/Location#ashtarak","40.2975","44.3617","https://kracr.iiitd.edu.in/Location#armenia"
"https://kracr.iiitd.edu.in/Location#ijevan","40.8792","45.1472","https://kracr.iiitd.edu.in/Location#armenia"
"https://kracr.iiitd.edu.in/Location#gavarr","40.3589","45.1267","https://kracr.iiitd.edu.in/Location#armenia"
"https://kracr.iiitd.edu.in/Location#norhachn","40.3019","44.5831","https://kracr.iiitd.edu.in/Location#armenia"
"https://kracr.iiitd.edu.in/Location#byureghavan","40.3147","44.5936","https://kracr.iiitd.edu.in/Location#armenia"
"https://kracr.iiitd.edu.in/Location#yeghegnadzor","39.7611","45.3333","https://kracr.iiitd.edu.in/Location#armenia"
"https://kracr.iiitd.edu.in/Location#ejmiatsin","40.1728","44.2925","https://kracr.iiitd.edu.in/Location#armenia"
"https://kracr.iiitd.edu.in/Location#sevan","40.555","44.9536","https://kracr.iiitd.edu.in/Location#armenia"
"https://kracr.iiitd.edu.in/Location#stepanavan","41.0096","44.3841","https://kracr.iiitd.edu.in/Location#armenia"
"https://kracr.iiitd.edu.in/Location#masis","40.0633","44.4408","https://kracr.iiitd.edu.in/Location#armenia"
"https://kracr.iiitd.edu.in/Location#goris","39.5078","46.3386","https://kracr.iiitd.edu.in/Location#armenia"
"https://kracr.iiitd.edu.in/Location#ararat","39.8303","44.7025","https://kracr.iiitd.edu.in/Location#armenia"
"https://kracr.iiitd.edu.in/Location#artik","40.6172","43.9758","https://kracr.iiitd.edu.in/Location#armenia"
"https://kracr.iiitd.edu.in/Location#dilijan","40.7408","44.8631","https://kracr.iiitd.edu.in/Location#armenia"
"https://kracr.iiitd.edu.in/Location#spitak","40.8372","44.2675","https://kracr.iiitd.edu.in/Location#armenia"
"https://kracr.iiitd.edu.in/Location#sisian","39.5208","46.0322","https://kracr.iiitd.edu.in/Location#armenia"
"https://kracr.iiitd.edu.in/Location#vedi","39.9106","44.7278","https://kracr.iiitd.edu.in/Location#armenia"
"https://kracr.iiitd.edu.in/Location#alaverdi","41.1333","44.65","https://kracr.iiitd.edu.in/Location#armenia"
"https://kracr.iiitd.edu.in/Location#vardenis","40.1806","45.72","https://kracr.iiitd.edu.in/Location#armenia"
"https://kracr.iiitd.edu.in/Location#martuni","40.14","45.3064","https://kracr.iiitd.edu.in/Location#armenia"
"https://kracr.iiitd.edu.in/Location#metsamor","40.1428","44.1164","https://kracr.iiitd.edu.in/Location#armenia"
"https://kracr.iiitd.edu.in/Location#yeghvard","40.3217","44.4814","https://kracr.iiitd.edu.in/Location#armenia"
"https://kracr.iiitd.edu.in/Location#ayntap","40.0986","44.4681","https://kracr.iiitd.edu.in/Location#armenia"
"https://kracr.iiitd.edu.in/Location#berd","40.8808","45.3917","https://kracr.iiitd.edu.in/Location#armenia"
"https://kracr.iiitd.edu.in/Location#vardenik","40.1331","45.4367","https://kracr.iiitd.edu.in/Location#armenia"
"https://kracr.iiitd.edu.in/Location#akhuryan","40.7814","43.8964","https://kracr.iiitd.edu.in/Location#armenia"
"https://kracr.iiitd.edu.in/Location#tashir","41.1244","44.2819","https://kracr.iiitd.edu.in/Location#armenia"
"https://kracr.iiitd.edu.in/Location#oranjestad","12.5186","-70.0358","https://kracr.iiitd.edu.in/Location#aruba"
"https://kracr.iiitd.edu.in/Location#tankileendert","12.5418","-70.022","https://kracr.iiitd.edu.in/Location#aruba"
"https://kracr.iiitd.edu.in/Location#sydney","-33.8678","151.21","https://kracr.iiitd.edu.in/Location#australia"
"https://kracr.iiitd.edu.in/Location#melbourne","-37.8142","144.9631","https://kracr.iiitd.edu.in/Location#australia"
"https://kracr.iiitd.edu.in/Location#brisbane","-27.4678","153.0281","https://kracr.iiitd.edu.in/Location#australia"
"https://kracr.iiitd.edu.in/Location#perth","-31.9559","115.8606","https://kracr.iiitd.edu.in/Location#australia"
"https://kracr.iiitd.edu.in/Location#adelaide","-34.9275","138.6","https://kracr.iiitd.edu.in/Location#australia"
"https://kracr.iiitd.edu.in/Location#canberra","-35.2931","149.1269","https://kracr.iiitd.edu.in/Location#australia"
"https://kracr.iiitd.edu.in/Location#goldcoast","-28.0167","153.4","https://kracr.iiitd.edu.in/Location#australia"
"https://kracr.iiitd.edu.in/Location#cranbourne","-38.0996","145.2834","https://kracr.iiitd.edu.in/Location#australia"
"https://kracr.iiitd.edu.in/Location#centralcoast","-33.3","151.2","https://kracr.iiitd.edu.in/Location#australia"
"https://kracr.iiitd.edu.in/Location#wollongong","-34.4331","150.8831","https://kracr.iiitd.edu.in/Location#australia"
"https://kracr.iiitd.edu.in/Location#hobart","-42.8806","147.325","https://kracr.iiitd.edu.in/Location#australia"
"https://kracr.iiitd.edu.in/Location#geelong","-38.15","144.35","https://kracr.iiitd.edu.in/Location#australia"
"https://kracr.iiitd.edu.in/Location#townsville","-19.25","146.8167","https://kracr.iiitd.edu.in/Location#australia"
"https://kracr.iiitd.edu.in/Location#ipswich","-27.6167","152.7667","https://kracr.iiitd.edu.in/Location#australia"
"https://kracr.iiitd.edu.in/Location#newcastle","-32.9167","151.75","https://kracr.iiitd.edu.in/Location#australia"
"https://kracr.iiitd.edu.in/Location#cairns","-16.92","145.78","https://kracr.iiitd.edu.in/Location#australia"
"https://kracr.iiitd.edu.in/Location#darwin","-12.4381","130.8411","https://kracr.iiitd.edu.in/Location#australia"
"https://kracr.iiitd.edu.in/Location#toowoomba","-27.5667","151.95","https://kracr.iiitd.edu.in/Location#australia"
"https://kracr.iiitd.edu.in/Location#launceston","-41.4419","147.145","https://kracr.iiitd.edu.in/Location#australia"
"https://kracr.iiitd.edu.in/Location#caloundra","-26.7986","153.1289","https://kracr.iiitd.edu.in/Location#australia"
"https://kracr.iiitd.edu.in/Location#dandenong","-37.981","145.215","https://kracr.iiitd.edu.in/Location#australia"
"https://kracr.iiitd.edu.in/Location#campbelltown","-34.0733","150.8261","https://kracr.iiitd.edu.in/Location#australia"
"https://kracr.iiitd.edu.in/Location#leopold","-38.1892","144.4644","https://kracr.iiitd.edu.in/Location#australia"
"https://kracr.iiitd.edu.in/Location#corinda","-27.4833","153.1","https://kracr.iiitd.edu.in/Location#australia"
"https://kracr.iiitd.edu.in/Location#ballarat","-37.5608","143.8475","https://kracr.iiitd.edu.in/Location#australia"
"https://kracr.iiitd.edu.in/Location#bendigo","-36.75","144.2667","https://kracr.iiitd.edu.in/Location#australia"
"https://kracr.iiitd.edu.in/Location#mackay","-21.1411","149.1858","https://kracr.iiitd.edu.in/Location#australia"
"https://kracr.iiitd.edu.in/Location#melton","-37.6833","144.5833","https://kracr.iiitd.edu.in/Location#australia"
"https://kracr.iiitd.edu.in/Location#bunbury","-33.3272","115.6369","https://kracr.iiitd.edu.in/Location#australia"
"https://kracr.iiitd.edu.in/Location#bundaberg","-24.8661","152.3494","https://kracr.iiitd.edu.in/Location#australia"
"https://kracr.iiitd.edu.in/Location#waggawagga","-35.1189","147.3689","https://kracr.iiitd.edu.in/Location#australia"
"https://kracr.iiitd.edu.in/Location#herveybay","-25.29","152.84","https://kracr.iiitd.edu.in/Location#australia"
"https://kracr.iiitd.edu.in/Location#pakenham","-38.0712","145.4878","https://kracr.iiitd.edu.in/Location#australia"
"https://kracr.iiitd.edu.in/Location#portmacquarie","-31.4333","152.9","https://kracr.iiitd.edu.in/Location#australia"
"https://kracr.iiitd.edu.in/Location#dubbo","-32.2569","148.6011","https://kracr.iiitd.edu.in/Location#australia"
"https://kracr.iiitd.edu.in/Location#orange","-33.2833","149.1","https://kracr.iiitd.edu.in/Location#australia"
"https://kracr.iiitd.edu.in/Location#sunbury","-37.5811","144.7139","https://kracr.iiitd.edu.in/Location#australia"
"https://kracr.iiitd.edu.in/Location#geraldton","-28.7744","114.6089","https://kracr.iiitd.edu.in/Location#australia"
"https://kracr.iiitd.edu.in/Location#frankston","-38.158","145.135","https://kracr.iiitd.edu.in/Location#australia"
"https://kracr.iiitd.edu.in/Location#gladstone","-23.8427","151.2555","https://kracr.iiitd.edu.in/Location#australia"
"https://kracr.iiitd.edu.in/Location#bathurst","-33.42","149.5778","https://kracr.iiitd.edu.in/Location#australia"
"https://kracr.iiitd.edu.in/Location#mildura","-34.1889","142.1583","https://kracr.iiitd.edu.in/Location#australia"
"https://kracr.iiitd.edu.in/Location#southport","-27.9667","153.4","https://kracr.iiitd.edu.in/Location#australia"
"https://kracr.iiitd.edu.in/Location#shepparton","-36.3833","145.4","https://kracr.iiitd.edu.in/Location#australia"
"https://kracr.iiitd.edu.in/Location#kalgoorlie","-30.7489","121.4658","https://kracr.iiitd.edu.in/Location#australia"
"https://kracr.iiitd.edu.in/Location#warrnambool","-38.3833","142.4833","https://kracr.iiitd.edu.in/Location#australia"
"https://kracr.iiitd.edu.in/Location#albany","-35.0228","117.8814","https://kracr.iiitd.edu.in/Location#australia"
"https://kracr.iiitd.edu.in/Location#quakershill","-33.7344","150.8789","https://kracr.iiitd.edu.in/Location#australia"
"https://kracr.iiitd.edu.in/Location#burnie","-41.0636","145.8753","https://kracr.iiitd.edu.in/Location#australia"
"https://kracr.iiitd.edu.in/Location#coffsharbour","-30.3022","153.1189","https://kracr.iiitd.edu.in/Location#australia"
"https://kracr.iiitd.edu.in/Location#caboolture","-27.0667","152.967","https://kracr.iiitd.edu.in/Location#australia"
"https://kracr.iiitd.edu.in/Location#mountgambier","-37.8294","140.7828","https://kracr.iiitd.edu.in/Location#australia"
"https://kracr.iiitd.edu.in/Location#traralgon","-38.1958","146.5403","https://kracr.iiitd.edu.in/Location#australia"
"https://kracr.iiitd.edu.in/Location#busselton","-33.6478","115.3458","https://kracr.iiitd.edu.in/Location#australia"
"https://kracr.iiitd.edu.in/Location#armidale","-30.5","151.65","https://kracr.iiitd.edu.in/Location#australia"
"https://kracr.iiitd.edu.in/Location#alicesprings","-23.7","133.8667","https://kracr.iiitd.edu.in/Location#australia"
"https://kracr.iiitd.edu.in/Location#devonport","-41.18","146.3503","https://kracr.iiitd.edu.in/Location#australia"
"https://kracr.iiitd.edu.in/Location#goulburn","-34.7547","149.6186","https://kracr.iiitd.edu.in/Location#australia"
"https://kracr.iiitd.edu.in/Location#whyalla","-33.0333","137.5667","https://kracr.iiitd.edu.in/Location#australia"
"https://kracr.iiitd.edu.in/Location#kwinana","-32.2394","115.7702","https://kracr.iiitd.edu.in/Location#australia"
"https://kracr.iiitd.edu.in/Location#mounteliza","-38.189","145.092","https://kracr.iiitd.edu.in/Location#australia"
"https://kracr.iiitd.edu.in/Location#griffith","-34.29","146.04","https://kracr.iiitd.edu.in/Location#australia"
"https://kracr.iiitd.edu.in/Location#wodonga","-36.1214","146.8881","https://kracr.iiitd.edu.in/Location#australia"
"https://kracr.iiitd.edu.in/Location#narangba","-27.2015","152.9655","https://kracr.iiitd.edu.in/Location#australia"
"https://kracr.iiitd.edu.in/Location#brokenhill","-31.95","141.4667","https://kracr.iiitd.edu.in/Location#australia"
"https://kracr.iiitd.edu.in/Location#wangaratta","-36.3583","146.3125","https://kracr.iiitd.edu.in/Location#australia"
"https://kracr.iiitd.edu.in/Location#taree","-31.9","152.45","https://kracr.iiitd.edu.in/Location#australia"
"https://kracr.iiitd.edu.in/Location#banorapoint","-28.2225","153.5386","https://kracr.iiitd.edu.in/Location#australia"
"https://kracr.iiitd.edu.in/Location#nerang","-27.9956","153.322","https://kracr.iiitd.edu.in/Location#australia"
"https://kracr.iiitd.edu.in/Location#lara","-38.0167","144.4167","https://kracr.iiitd.edu.in/Location#australia"
"https://kracr.iiitd.edu.in/Location#karratha","-20.7364","116.8464","https://kracr.iiitd.edu.in/Location#australia"
"https://kracr.iiitd.edu.in/Location#cessnock","-32.8342","151.3555","https://kracr.iiitd.edu.in/Location#australia"
"https://kracr.iiitd.edu.in/Location#warragul","-38.15","145.9333","https://kracr.iiitd.edu.in/Location#australia"
"https://kracr.iiitd.edu.in/Location#maryborough","-25.5375","152.7019","https://kracr.iiitd.edu.in/Location#australia"
"https://kracr.iiitd.edu.in/Location#ulladulla","-35.3486","150.4678","https://kracr.iiitd.edu.in/Location#australia"
"https://kracr.iiitd.edu.in/Location#ulverstone","-41.1667","146.1667","https://kracr.iiitd.edu.in/Location#australia"
"https://kracr.iiitd.edu.in/Location#barwonheads","-38.25","144.5167","https://kracr.iiitd.edu.in/Location#australia"
"https://kracr.iiitd.edu.in/Location#horsham","-36.7167","142.2","https://kracr.iiitd.edu.in/Location#australia"
"https://kracr.iiitd.edu.in/Location#rochedale","-27.6","153.133","https://kracr.iiitd.edu.in/Location#australia"
"https://kracr.iiitd.edu.in/Location#murraybridge","-35.117","139.267","https://kracr.iiitd.edu.in/Location#australia"
"https://kracr.iiitd.edu.in/Location#australind","-33.28","115.726","https://kracr.iiitd.edu.in/Location#australia"
"https://kracr.iiitd.edu.in/Location#penrith","-33.7511","150.6942","https://kracr.iiitd.edu.in/Location#australia"
"https://kracr.iiitd.edu.in/Location#echuca","-36.1333","144.75","https://kracr.iiitd.edu.in/Location#australia"
"https://kracr.iiitd.edu.in/Location#morwell","-38.2333","146.4","https://kracr.iiitd.edu.in/Location#australia"
"https://kracr.iiitd.edu.in/Location#portlincoln","-34.7322","135.8586","https://kracr.iiitd.edu.in/Location#australia"
"https://kracr.iiitd.edu.in/Location#forster","-32.1806","152.5117","https://kracr.iiitd.edu.in/Location#australia"
"https://kracr.iiitd.edu.in/Location#mountbarker","-35.0667","138.85","https://kracr.iiitd.edu.in/Location#australia"
"https://kracr.iiitd.edu.in/Location#goonellabah","-28.8167","153.3167","https://kracr.iiitd.edu.in/Location#australia"
"https://kracr.iiitd.edu.in/Location#bongaree","-27.0813","153.1636","https://kracr.iiitd.edu.in/Location#australia"
"https://kracr.iiitd.edu.in/Location#emerald","-23.5208","148.1619","https://kracr.iiitd.edu.in/Location#australia"
"https://kracr.iiitd.edu.in/Location#sale","-38.1","147.0667","https://kracr.iiitd.edu.in/Location#australia"
"https://kracr.iiitd.edu.in/Location#rutherford","-32.715","151.5317","https://kracr.iiitd.edu.in/Location#australia"
"https://kracr.iiitd.edu.in/Location#jimboomba","-27.83","153.0313","https://kracr.iiitd.edu.in/Location#australia"
"https://kracr.iiitd.edu.in/Location#torquay","-38.3333","144.3167","https://kracr.iiitd.edu.in/Location#australia"
"https://kracr.iiitd.edu.in/Location#raymondterrace","-32.7615","151.7441","https://kracr.iiitd.edu.in/Location#australia"
"https://kracr.iiitd.edu.in/Location#dalby","-27.1813","151.2661","https://kracr.iiitd.edu.in/Location#australia"
"https://kracr.iiitd.edu.in/Location#muswellbrook","-32.2654","150.8885","https://kracr.iiitd.edu.in/Location#australia"
"https://kracr.iiitd.edu.in/Location#warwick","-28.2152","152.0352","https://kracr.iiitd.edu.in/Location#australia"
"https://kracr.iiitd.edu.in/Location#drouin","-38.1333","145.85","https://kracr.iiitd.edu.in/Location#australia"
"https://kracr.iiitd.edu.in/Location#inverell","-29.7667","151.1167","https://kracr.iiitd.edu.in/Location#australia"
"https://kracr.iiitd.edu.in/Location#parkes","-33.133","148.176","https://kracr.iiitd.edu.in/Location#australia"
"https://kracr.iiitd.edu.in/Location#wallan","-37.4167","144.9833","https://kracr.iiitd.edu.in/Location#australia"
"https://kracr.iiitd.edu.in/Location#nambour","-26.6269","152.9591","https://kracr.iiitd.edu.in/Location#australia"
"https://kracr.iiitd.edu.in/Location#somerville","-38.226","145.177","https://kracr.iiitd.edu.in/Location#australia"
"https://kracr.iiitd.edu.in/Location#kingston","-42.9769","147.3083","https://kracr.iiitd.edu.in/Location#australia"
"https://kracr.iiitd.edu.in/Location#broome","-17.9619","122.2361","https://kracr.iiitd.edu.in/Location#australia"
"https://kracr.iiitd.edu.in/Location#casino","-28.8667","153.05","https://kracr.iiitd.edu.in/Location#australia"
"https://kracr.iiitd.edu.in/Location#mareeba","-16.9833","145.4167","https://kracr.iiitd.edu.in/Location#australia"
"https://kracr.iiitd.edu.in/Location#batemansbay","-35.7081","150.1744","https://kracr.iiitd.edu.in/Location#australia"
"https://kracr.iiitd.edu.in/Location#gympie","-26.19","152.6655","https://kracr.iiitd.edu.in/Location#australia"
"https://kracr.iiitd.edu.in/Location#gracemere","-23.4391","150.4558","https://kracr.iiitd.edu.in/Location#australia"
"https://kracr.iiitd.edu.in/Location#grafton","-29.6833","152.9333","https://kracr.iiitd.edu.in/Location#australia"
"https://kracr.iiitd.edu.in/Location#nelsonbay","-32.715","152.1511","https://kracr.iiitd.edu.in/Location#australia"
"https://kracr.iiitd.edu.in/Location#young","-34.3","148.3","https://kracr.iiitd.edu.in/Location#australia"
"https://kracr.iiitd.edu.in/Location#bowral","-34.4792","150.4181","https://kracr.iiitd.edu.in/Location#australia"
"https://kracr.iiitd.edu.in/Location#nowra","-34.8808","150.6075","https://kracr.iiitd.edu.in/Location#australia"
"https://kracr.iiitd.edu.in/Location#swanhill","-35.3333","143.55","https://kracr.iiitd.edu.in/Location#australia"
"https://kracr.iiitd.edu.in/Location#mountevelyn","-37.783","145.385","https://kracr.iiitd.edu.in/Location#australia"
"https://kracr.iiitd.edu.in/Location#benalla","-36.5519","145.9817","https://kracr.iiitd.edu.in/Location#australia"
"https://kracr.iiitd.edu.in/Location#mudgee","-32.6125","149.5872","https://kracr.iiitd.edu.in/Location#australia"
"https://kracr.iiitd.edu.in/Location#cowra","-33.8183","148.6578","https://kracr.iiitd.edu.in/Location#australia"
"https://kracr.iiitd.edu.in/Location#kangarooflat","-36.7833","144.233","https://kracr.iiitd.edu.in/Location#australia"
"https://kracr.iiitd.edu.in/Location#hamilton","-37.7333","142.0167","https://kracr.iiitd.edu.in/Location#australia"
"https://kracr.iiitd.edu.in/Location#bowen","-20.0102","148.2416","https://kracr.iiitd.edu.in/Location#australia"
"https://kracr.iiitd.edu.in/Location#ballina","-28.8333","153.5333","https://kracr.iiitd.edu.in/Location#australia"
"https://kracr.iiitd.edu.in/Location#andergrove","-21.0931","149.186","https://kracr.iiitd.edu.in/Location#australia"
"https://kracr.iiitd.edu.in/Location#moree","-29.465","149.8344","https://kracr.iiitd.edu.in/Location#australia"
"https://kracr.iiitd.edu.in/Location#kingaroy","-26.5408","151.8394","https://kracr.iiitd.edu.in/Location#australia"
"https://kracr.iiitd.edu.in/Location#portland","-38.3333","141.6","https://kracr.iiitd.edu.in/Location#australia"
"https://kracr.iiitd.edu.in/Location#gunnedah","-30.9817","150.2511","https://kracr.iiitd.edu.in/Location#australia"
"https://kracr.iiitd.edu.in/Location#colac","-38.3403","143.5847","https://kracr.iiitd.edu.in/Location#australia"
"https://kracr.iiitd.edu.in/Location#leeton","-34.5667","146.4","https://kracr.iiitd.edu.in/Location#australia"
"https://kracr.iiitd.edu.in/Location#highfields","-27.4633","151.9458","https://kracr.iiitd.edu.in/Location#australia"
"https://kracr.iiitd.edu.in/Location#tweedheads","-28.1833","153.55","https://kracr.iiitd.edu.in/Location#australia"
"https://kracr.iiitd.edu.in/Location#yanchep","-31.55","115.634","https://kracr.iiitd.edu.in/Location#australia"
"https://kracr.iiitd.edu.in/Location#currumbin","-28.158","153.469","https://kracr.iiitd.edu.in/Location#australia"
"https://kracr.iiitd.edu.in/Location#kelso","-33.4186","149.6056","https://kracr.iiitd.edu.in/Location#australia"
"https://kracr.iiitd.edu.in/Location#mossvale","-34.55","150.3833","https://kracr.iiitd.edu.in/Location#australia"
"https://kracr.iiitd.edu.in/Location#mandurah","-32.5289","115.7231","https://kracr.iiitd.edu.in/Location#australia"
"https://kracr.iiitd.edu.in/Location#katoomba","-33.715","150.312","https://kracr.iiitd.edu.in/Location#australia"
"https://kracr.iiitd.edu.in/Location#gisborne","-37.49","144.5889","https://kracr.iiitd.edu.in/Location#australia"
"https://kracr.iiitd.edu.in/Location#wollert","-37.5833","145.0333","https://kracr.iiitd.edu.in/Location#australia"
"https://kracr.iiitd.edu.in/Location#ayr","-19.5744","147.4066","https://kracr.iiitd.edu.in/Location#australia"
"https://kracr.iiitd.edu.in/Location#ararat","-37.2833","142.9167","https://kracr.iiitd.edu.in/Location#australia"
"https://kracr.iiitd.edu.in/Location#charterstowers","-20.0765","146.2614","https://kracr.iiitd.edu.in/Location#australia"
"https://kracr.iiitd.edu.in/Location#moe","-38.1722","146.2678","https://kracr.iiitd.edu.in/Location#australia"
"https://kracr.iiitd.edu.in/Location#deniliquin","-35.5331","144.9667","https://kracr.iiitd.edu.in/Location#australia"
"https://kracr.iiitd.edu.in/Location#moranbah","-22.0016","148.0533","https://kracr.iiitd.edu.in/Location#australia"
"https://kracr.iiitd.edu.in/Location#forbes","-33.3817","148.0011","https://kracr.iiitd.edu.in/Location#australia"
"https://kracr.iiitd.edu.in/Location#redlynch","-16.8833","145.7","https://kracr.iiitd.edu.in/Location#australia"
"https://kracr.iiitd.edu.in/Location#maryborough","-37.05","143.735","https://kracr.iiitd.edu.in/Location#australia"
"https://kracr.iiitd.edu.in/Location#narrabri","-30.3317","149.7678","https://kracr.iiitd.edu.in/Location#australia"
"https://kracr.iiitd.edu.in/Location#bairnsdale","-37.8333","147.6167","https://kracr.iiitd.edu.in/Location#australia"
"https://kracr.iiitd.edu.in/Location#portaugusta","-32.4925","137.7658","https://kracr.iiitd.edu.in/Location#australia"
"https://kracr.iiitd.edu.in/Location#kiama","-34.6708","150.8542","https://kracr.iiitd.edu.in/Location#australia"
"https://kracr.iiitd.edu.in/Location#atherton","-17.2658","145.478","https://kracr.iiitd.edu.in/Location#australia"
"https://kracr.iiitd.edu.in/Location#seymour","-37.03","145.13","https://kracr.iiitd.edu.in/Location#australia"
"https://kracr.iiitd.edu.in/Location#newman","-23.3539","119.7319","https://kracr.iiitd.edu.in/Location#australia"
"https://kracr.iiitd.edu.in/Location#cooma","-36.2317","149.1178","https://kracr.iiitd.edu.in/Location#australia"
"https://kracr.iiitd.edu.in/Location#tumut","-35.3039","148.2233","https://kracr.iiitd.edu.in/Location#australia"
"https://kracr.iiitd.edu.in/Location#roma","-26.5733","148.7869","https://kracr.iiitd.edu.in/Location#australia"
"https://kracr.iiitd.edu.in/Location#yamba","-29.44","153.3594","https://kracr.iiitd.edu.in/Location#australia"
"https://kracr.iiitd.edu.in/Location#northam","-31.6531","116.6661","https://kracr.iiitd.edu.in/Location#australia"
"https://kracr.iiitd.edu.in/Location#stawell","-37.05","142.7667","https://kracr.iiitd.edu.in/Location#australia"
"https://kracr.iiitd.edu.in/Location#yeppoon","-23.1288","150.7444","https://kracr.iiitd.edu.in/Location#australia"
"https://kracr.iiitd.edu.in/Location#scone","-32.0483","150.8678","https://kracr.iiitd.edu.in/Location#australia"
"https://kracr.iiitd.edu.in/Location#goondiwindi","-28.5461","150.3097","https://kracr.iiitd.edu.in/Location#australia"
"https://kracr.iiitd.edu.in/Location#cobram","-35.9667","145.65","https://kracr.iiitd.edu.in/Location#australia"
"https://kracr.iiitd.edu.in/Location#queanbeyan","-35.3533","149.2342","https://kracr.iiitd.edu.in/Location#australia"
"https://kracr.iiitd.edu.in/Location#albury","-36.0806","146.9158","https://kracr.iiitd.edu.in/Location#australia"
"https://kracr.iiitd.edu.in/Location#lithgow","-33.4833","150.15","https://kracr.iiitd.edu.in/Location#australia"
"https://kracr.iiitd.edu.in/Location#richmond","-33.5983","150.7511","https://kracr.iiitd.edu.in/Location#australia"
"https://kracr.iiitd.edu.in/Location#biloela","-24.4002","150.5133","https://kracr.iiitd.edu.in/Location#australia"
"https://kracr.iiitd.edu.in/Location#byronbay","-28.6483","153.6178","https://kracr.iiitd.edu.in/Location#australia"
"https://kracr.iiitd.edu.in/Location#singleton","-32.5667","151.1697","https://kracr.iiitd.edu.in/Location#australia"
"https://kracr.iiitd.edu.in/Location#wonthaggi","-38.6056","145.5917","https://kracr.iiitd.edu.in/Location#australia"
"https://kracr.iiitd.edu.in/Location#kununurra","-15.7736","128.7386","https://kracr.iiitd.edu.in/Location#australia"
"https://kracr.iiitd.edu.in/Location#berri","-34.2833","140.6","https://kracr.iiitd.edu.in/Location#australia"
"https://kracr.iiitd.edu.in/Location#victorharbor","-35.55","138.6167","https://kracr.iiitd.edu.in/Location#australia"
"https://kracr.iiitd.edu.in/Location#lismore","-28.8167","153.2833","https://kracr.iiitd.edu.in/Location#australia"
"https://kracr.iiitd.edu.in/Location#ingham","-18.6508","146.1572","https://kracr.iiitd.edu.in/Location#australia"
"https://kracr.iiitd.edu.in/Location#smithton","-40.844","145.12","https://kracr.iiitd.edu.in/Location#australia"
"https://kracr.iiitd.edu.in/Location#narrogin","-32.936","117.178","https://kracr.iiitd.edu.in/Location#australia"
"https://kracr.iiitd.edu.in/Location#manjimup","-34.2411","116.1464","https://kracr.iiitd.edu.in/Location#australia"
"https://kracr.iiitd.edu.in/Location#merimbula","-36.8983","149.9011","https://kracr.iiitd.edu.in/Location#australia"
"https://kracr.iiitd.edu.in/Location#porthedland","-20.31","118.6011","https://kracr.iiitd.edu.in/Location#australia"
"https://kracr.iiitd.edu.in/Location#weipa","-12.63","141.8786","https://kracr.iiitd.edu.in/Location#australia"
"https://kracr.iiitd.edu.in/Location#clare","-33.8333","138.6","https://kracr.iiitd.edu.in/Location#australia"
"https://kracr.iiitd.edu.in/Location#proserpine","-20.4016","148.5808","https://kracr.iiitd.edu.in/Location#australia"
"https://kracr.iiitd.edu.in/Location#wallaroo","-33.9167","137.6167","https://kracr.iiitd.edu.in/Location#australia"
"https://kracr.iiitd.edu.in/Location#katanning","-33.6908","117.5553","https://kracr.iiitd.edu.in/Location#australia"
"https://kracr.iiitd.edu.in/Location#portdouglas","-16.4834","145.4652","https://kracr.iiitd.edu.in/Location#australia"
"https://kracr.iiitd.edu.in/Location#charleville","-26.4016","146.2383","https://kracr.iiitd.edu.in/Location#australia"
"https://kracr.iiitd.edu.in/Location#bordertown","-36.3118","140.7702","https://kracr.iiitd.edu.in/Location#australia"
"https://kracr.iiitd.edu.in/Location#tomprice","-22.6939","117.795","https://kracr.iiitd.edu.in/Location#australia"
"https://kracr.iiitd.edu.in/Location#esperance","-33.8611","121.8919","https://kracr.iiitd.edu.in/Location#australia"
"https://kracr.iiitd.edu.in/Location#longreach","-23.4422","144.2491","https://kracr.iiitd.edu.in/Location#australia"
"https://kracr.iiitd.edu.in/Location#merredin","-31.482","118.279","https://kracr.iiitd.edu.in/Location#australia"
"https://kracr.iiitd.edu.in/Location#mountbarker","-34.63","117.6669","https://kracr.iiitd.edu.in/Location#australia"
"https://kracr.iiitd.edu.in/Location#cloncurry","-20.7047","140.5052","https://kracr.iiitd.edu.in/Location#australia"
"https://kracr.iiitd.edu.in/Location#scottsdale","-41.1667","147.5167","https://kracr.iiitd.edu.in/Location#australia"
"https://kracr.iiitd.edu.in/Location#bourke","-30.1","145.9333","https://kracr.iiitd.edu.in/Location#australia"
"https://kracr.iiitd.edu.in/Location#exmouth","-21.9331","114.1281","https://kracr.iiitd.edu.in/Location#australia"
"https://kracr.iiitd.edu.in/Location#queenstown","-42.0667","145.55","https://kracr.iiitd.edu.in/Location#australia"
"https://kracr.iiitd.edu.in/Location#tumbybay","-34.3667","136.1","https://kracr.iiitd.edu.in/Location#australia"
