City,Latitude,Longitude,Country
https://anonymous.com/Location#kabul,34.5253,69.1783,https://anonymous.com/Location#afghanistan
https://anonymous.com/Location#kunduz,36.7286,68.8681,https://anonymous.com/Location#afghanistan
https://anonymous.com/Location#zaranj,30.96,61.86,https://anonymous.com/Location#afghanistan
https://anonymous.com/Location#sharan,33.1757,68.7304,https://anonymous.com/Location#afghanistan
https://anonymous.com/Location#balkh,36.7581,66.8981,https://anonymous.com/Location#afghanistan
https://anonymous.com/Location#khulm,36.6833,67.6833,https://anonymous.com/Location#afghanistan
https://anonymous.com/Location#karukh,34.4922,62.5922,https://anonymous.com/Location#afghanistan
https://anonymous.com/Location#kushk,33.2956,61.9522,https://anonymous.com/Location#afghanistan
https://anonymous.com/Location#taywarah,33.51,64.42,https://anonymous.com/Location#afghanistan
https://anonymous.com/Location#tujg,32.0686,61.8058,https://anonymous.com/Location#afghanistan
https://anonymous.com/Location#tirana,41.3289,19.8178,https://anonymous.com/Location#albania
https://anonymous.com/Location#fier,40.725,19.5572,https://anonymous.com/Location#albania
https://anonymous.com/Location#elbasan,41.1111,20.0806,https://anonymous.com/Location#albania
https://anonymous.com/Location#berat,40.7,19.95,https://anonymous.com/Location#albania
https://anonymous.com/Location#peshkopi,41.6833,20.4281,https://anonymous.com/Location#albania
https://anonymous.com/Location#pogradec,40.9,20.65,https://anonymous.com/Location#albania
https://anonymous.com/Location#sukth,41.3833,19.5333,https://anonymous.com/Location#albania
https://anonymous.com/Location#patos,40.6833,19.6167,https://anonymous.com/Location#albania
https://anonymous.com/Location#burrel,41.6083,20.0111,https://anonymous.com/Location#albania
https://anonymous.com/Location#gramsh,40.8667,20.1833,https://anonymous.com/Location#albania
https://anonymous.com/Location#perondi,40.7833,19.9333,https://anonymous.com/Location#albania
https://anonymous.com/Location#libonik,40.75,20.7167,https://anonymous.com/Location#albania
https://anonymous.com/Location#belsh,40.9833,19.8833,https://anonymous.com/Location#albania
https://anonymous.com/Location#librazhd,41.1833,20.3167,https://anonymous.com/Location#albania
https://anonymous.com/Location#bajramcurri,42.3581,20.0758,https://anonymous.com/Location#albania
https://anonymous.com/Location#algiers,36.7539,3.0589,https://anonymous.com/Location#algeria
https://anonymous.com/Location#oran,35.6969,-0.6331,https://anonymous.com/Location#algeria
https://anonymous.com/Location#constantine,36.365,6.6147,https://anonymous.com/Location#algeria
https://anonymous.com/Location#blida,36.4722,2.8333,https://anonymous.com/Location#algeria
https://anonymous.com/Location#batna,35.55,6.1667,https://anonymous.com/Location#algeria
https://anonymous.com/Location#djelfa,34.6667,3.25,https://anonymous.com/Location#algeria
https://anonymous.com/Location#annaba,36.9,7.7667,https://anonymous.com/Location#algeria
https://anonymous.com/Location#biskra,34.85,5.7333,https://anonymous.com/Location#algeria
https://anonymous.com/Location#tiaret,35.3667,1.3167,https://anonymous.com/Location#algeria
https://anonymous.com/Location#tlemcen,34.8828,-1.3167,https://anonymous.com/Location#algeria
https://anonymous.com/Location#bordjbouarreridj,36.0667,4.7667,https://anonymous.com/Location#algeria
https://anonymous.com/Location#skikda,36.8667,6.9,https://anonymous.com/Location#algeria
https://anonymous.com/Location#eleulma,36.1528,5.69,https://anonymous.com/Location#algeria
https://anonymous.com/Location#chlef,36.1647,1.3317,https://anonymous.com/Location#algeria
https://anonymous.com/Location#soukahras,36.2864,7.9511,https://anonymous.com/Location#algeria
https://anonymous.com/Location#mostaganem,35.9333,0.0833,https://anonymous.com/Location#algeria
https://anonymous.com/Location#tiziouzou,36.7169,4.0497,https://anonymous.com/Location#algeria
https://anonymous.com/Location#eloued,33.3683,6.8675,https://anonymous.com/Location#algeria
https://anonymous.com/Location#laghouat,33.8,2.865,https://anonymous.com/Location#algeria
https://anonymous.com/Location#jijel,36.8206,5.7667,https://anonymous.com/Location#algeria
https://anonymous.com/Location#ouargla,31.95,5.3167,https://anonymous.com/Location#algeria
https://anonymous.com/Location#relizane,35.7372,0.5558,https://anonymous.com/Location#algeria
https://anonymous.com/Location#guelma,36.4619,7.4258,https://anonymous.com/Location#algeria
https://anonymous.com/Location#khenchela,35.4167,7.1333,https://anonymous.com/Location#algeria
https://anonymous.com/Location#mascara,35.4,0.1333,https://anonymous.com/Location#algeria
https://anonymous.com/Location#messaad,34.1542,3.4969,https://anonymous.com/Location#algeria
https://anonymous.com/Location#oumelbouaghi,35.8706,7.115,https://anonymous.com/Location#algeria
https://anonymous.com/Location#elbayadh,33.6831,1.0192,https://anonymous.com/Location#algeria
https://anonymous.com/Location#tamanrasset,22.785,5.5228,https://anonymous.com/Location#algeria
https://anonymous.com/Location#tissemsilt,35.6072,1.8106,https://anonymous.com/Location#algeria
https://anonymous.com/Location#bouira,36.38,3.9014,https://anonymous.com/Location#algeria
https://anonymous.com/Location#adrar,27.8742,-0.2939,https://anonymous.com/Location#algeria
https://anonymous.com/Location#boudouaou,36.73,3.41,https://anonymous.com/Location#algeria
https://anonymous.com/Location#tindouf,27.6753,-8.1286,https://anonymous.com/Location#algeria
https://anonymous.com/Location#boumerdes,36.7603,3.4724,https://anonymous.com/Location#algeria
https://anonymous.com/Location#elgolea,30.6,2.9,https://anonymous.com/Location#algeria
https://anonymous.com/Location#touggourt,33.1,6.0667,https://anonymous.com/Location#algeria
https://anonymous.com/Location#timimoun,29.25,0.2333,https://anonymous.com/Location#algeria
https://anonymous.com/Location#eltarf,36.7669,8.3136,https://anonymous.com/Location#algeria
https://anonymous.com/Location#tipasa,36.5942,2.443,https://anonymous.com/Location#algeria
https://anonymous.com/Location#illizi,26.508,8.4829,https://anonymous.com/Location#algeria
https://anonymous.com/Location#bordjmokhtar,21.3289,0.9542,https://anonymous.com/Location#algeria
https://anonymous.com/Location#naama,33.2678,-0.3111,https://anonymous.com/Location#algeria
https://anonymous.com/Location#djanet,24.555,9.4853,https://anonymous.com/Location#algeria
https://anonymous.com/Location#inguezzam,19.5686,5.7722,https://anonymous.com/Location#algeria
https://anonymous.com/Location#mila,36.4481,6.2622,https://anonymous.com/Location#algeria
https://anonymous.com/Location#ouleddjellal,34.4167,5.0667,https://anonymous.com/Location#algeria
https://anonymous.com/Location#essenia,35.6478,-0.6239,https://anonymous.com/Location#algeria
https://anonymous.com/Location#khemismiliana,36.26,2.2,https://anonymous.com/Location#algeria
https://anonymous.com/Location#elmilia,36.75,6.2667,https://anonymous.com/Location#algeria
https://anonymous.com/Location#khemiselkhechna,36.65,3.3306,https://anonymous.com/Location#algeria
https://anonymous.com/Location#mecheria,33.55,-0.2833,https://anonymous.com/Location#algeria
https://anonymous.com/Location#rouiba,36.7333,3.2833,https://anonymous.com/Location#algeria
https://anonymous.com/Location#tighenif,35.4167,0.333,https://anonymous.com/Location#algeria
https://anonymous.com/Location#lakhdaria,36.5622,3.5944,https://anonymous.com/Location#algeria
https://anonymous.com/Location#boufarik,36.575,2.9097,https://anonymous.com/Location#algeria
https://anonymous.com/Location#azzaba,36.7333,7.1,https://anonymous.com/Location#algeria
https://anonymous.com/Location#akbou,36.4667,4.5333,https://anonymous.com/Location#algeria
https://anonymous.com/Location#ouledmoussa,36.6831,3.3681,https://anonymous.com/Location#algeria
https://anonymous.com/Location#hassimessaoud,31.7,6.0667,https://anonymous.com/Location#algeria
https://anonymous.com/Location#draaelmizan,36.5333,3.8333,https://anonymous.com/Location#algeria
https://anonymous.com/Location#souma,36.5183,2.9053,https://anonymous.com/Location#algeria
https://anonymous.com/Location#bougara,36.5333,3.0833,https://anonymous.com/Location#algeria
https://anonymous.com/Location#azazga,36.7453,4.3711,https://anonymous.com/Location#algeria
https://anonymous.com/Location#didouchemourad,36.4484,6.6339,https://anonymous.com/Location#algeria
https://anonymous.com/Location#dellys,36.9133,3.9141,https://anonymous.com/Location#algeria
https://anonymous.com/Location#draabenkhedda,36.7349,3.9556,https://anonymous.com/Location#algeria
https://anonymous.com/Location#boghni,36.5437,3.9523,https://anonymous.com/Location#algeria
https://anonymous.com/Location#tizigheniff,36.5891,3.7678,https://anonymous.com/Location#algeria
https://anonymous.com/Location#elkseur,36.6844,4.8522,https://anonymous.com/Location#algeria
https://anonymous.com/Location#timizart,36.8,4.2667,https://anonymous.com/Location#algeria
https://anonymous.com/Location#babar,35.1692,7.1013,https://anonymous.com/Location#algeria
https://anonymous.com/Location#freha,36.762,4.3163,https://anonymous.com/Location#algeria
https://anonymous.com/Location#mekla,36.6876,4.2681,https://anonymous.com/Location#algeria
https://anonymous.com/Location#tadjmout,33.8667,2.5167,https://anonymous.com/Location#algeria
https://anonymous.com/Location#beniamrane,36.6686,3.5922,https://anonymous.com/Location#algeria
https://anonymous.com/Location#makouda,36.7909,4.0669,https://anonymous.com/Location#algeria
https://anonymous.com/Location#amoucha,36.388,5.4108,https://anonymous.com/Location#algeria
https://anonymous.com/Location#naciria,36.75,3.8333,https://anonymous.com/Location#algeria
https://anonymous.com/Location#kadiria,36.5333,3.6833,https://anonymous.com/Location#algeria
https://anonymous.com/Location#djinet,36.877,3.7231,https://anonymous.com/Location#algeria
https://anonymous.com/Location#benidouala,36.6167,4.0667,https://anonymous.com/Location#algeria
https://anonymous.com/Location#thenia,36.7278,3.5539,https://anonymous.com/Location#algeria
https://anonymous.com/Location#aomar,36.5,3.7833,https://anonymous.com/Location#algeria
https://anonymous.com/Location#talayfassene,36.4583,5.0889,https://anonymous.com/Location#algeria
https://anonymous.com/Location#reggane,26.7,0.1667,https://anonymous.com/Location#algeria
https://anonymous.com/Location#arbaoun,36.4667,5.65,https://anonymous.com/Location#algeria
https://anonymous.com/Location#tirmitine,36.6618,3.9848,https://anonymous.com/Location#algeria
https://anonymous.com/Location#timoktene,27.0217,1.015,https://anonymous.com/Location#algeria
https://anonymous.com/Location#bettioua,35.8,-0.2667,https://anonymous.com/Location#algeria
https://anonymous.com/Location#benifouda,36.2861,5.6071,https://anonymous.com/Location#algeria
https://anonymous.com/Location#tizirached,36.6718,4.1918,https://anonymous.com/Location#algeria
https://anonymous.com/Location#sididaoud,36.85,3.85,https://anonymous.com/Location#algeria
https://anonymous.com/Location#azeffoun,36.8961,4.4204,https://anonymous.com/Location#algeria
https://anonymous.com/Location#tichi,36.6675,5.1601,https://anonymous.com/Location#algeria
https://anonymous.com/Location#chorfa,36.3617,4.3307,https://anonymous.com/Location#algeria
https://anonymous.com/Location#ouadhia,36.55,4.0833,https://anonymous.com/Location#algeria
https://anonymous.com/Location#boudjima,36.814,4.1588,https://anonymous.com/Location#algeria
https://anonymous.com/Location#ouledsidibrahim,36.3667,3.7167,https://anonymous.com/Location#algeria
https://anonymous.com/Location#iflissen,36.8636,4.2203,https://anonymous.com/Location#algeria
https://anonymous.com/Location#abadla,31.0167,-2.7333,https://anonymous.com/Location#algeria
https://anonymous.com/Location#takerbouzt,36.418,4.3428,https://anonymous.com/Location#algeria
https://anonymous.com/Location#moudjbara,34.5037,3.4704,https://anonymous.com/Location#algeria
https://anonymous.com/Location#afir,36.7676,3.7029,https://anonymous.com/Location#algeria
https://anonymous.com/Location#mechtras,36.5448,4.0049,https://anonymous.com/Location#algeria
https://anonymous.com/Location#sali,26.9833,-0.0333,https://anonymous.com/Location#algeria
https://anonymous.com/Location#elmarsa,36.8111,3.2556,https://anonymous.com/Location#algeria
https://anonymous.com/Location#arhribs,36.8022,4.3227,https://anonymous.com/Location#algeria
https://anonymous.com/Location#simustapha,36.7247,3.6153,https://anonymous.com/Location#algeria
https://anonymous.com/Location#iferhounene,36.5338,4.3701,https://anonymous.com/Location#algeria
https://anonymous.com/Location#eladjiba,36.3333,4.15,https://anonymous.com/Location#algeria
https://anonymous.com/Location#yakouren,36.7348,4.4386,https://anonymous.com/Location#algeria
https://anonymous.com/Location#tigzirt,36.8931,4.1225,https://anonymous.com/Location#algeria
https://anonymous.com/Location#bechloul,36.3167,4.0667,https://anonymous.com/Location#algeria
https://anonymous.com/Location#charouine,29.0167,-0.2667,https://anonymous.com/Location#algeria
https://anonymous.com/Location#birghbalou,36.2642,3.5836,https://anonymous.com/Location#algeria
https://anonymous.com/Location#sidinamane,36.7581,3.9839,https://anonymous.com/Location#algeria
https://anonymous.com/Location#sidibrahim,35.2606,-0.5675,https://anonymous.com/Location#algeria
https://anonymous.com/Location#bordjokhriss,36.0833,3.9667,https://anonymous.com/Location#algeria
https://anonymous.com/Location#bennasseur,33.1107,6.441,https://anonymous.com/Location#algeria
https://anonymous.com/Location#souama,36.6417,4.3416,https://anonymous.com/Location#algeria
https://anonymous.com/Location#bounouh,36.5,3.9333,https://anonymous.com/Location#algeria
https://anonymous.com/Location#toudja,36.7586,4.8933,https://anonymous.com/Location#algeria
https://anonymous.com/Location#ifigha,36.6667,4.4167,https://anonymous.com/Location#algeria
https://anonymous.com/Location#ouledrached,36.2119,4.1106,https://anonymous.com/Location#algeria
https://anonymous.com/Location#seddoukoufella,36.6061,4.6389,https://anonymous.com/Location#algeria
https://anonymous.com/Location#abalessa,22.89,4.8472,https://anonymous.com/Location#algeria
https://anonymous.com/Location#boukhralfa,36.6144,5.0872,https://anonymous.com/Location#algeria
https://anonymous.com/Location#tifra,36.6664,4.6972,https://anonymous.com/Location#algeria
https://anonymous.com/Location#amalou,36.4778,4.6333,https://anonymous.com/Location#algeria
https://anonymous.com/Location#beniounif,32.05,-1.25,https://anonymous.com/Location#algeria
https://anonymous.com/Location#pagopago,-14.274,-170.7046,https://anonymous.com/Location#americansamoa
https://anonymous.com/Location#andorralavella,42.5,1.5,https://anonymous.com/Location#andorra
https://anonymous.com/Location#encamp,42.5361,1.5828,https://anonymous.com/Location#andorra
https://anonymous.com/Location#lamassana,42.5444,1.5144,https://anonymous.com/Location#andorra
https://anonymous.com/Location#ordino,42.555,1.5331,https://anonymous.com/Location#andorra
https://anonymous.com/Location#canillo,42.5667,1.6,https://anonymous.com/Location#andorra
https://anonymous.com/Location#luanda,-8.8383,13.2344,https://anonymous.com/Location#angola
https://anonymous.com/Location#cacuaco,-8.8053,13.2444,https://anonymous.com/Location#angola
https://anonymous.com/Location#lubango,-14.9167,13.5,https://anonymous.com/Location#angola
https://anonymous.com/Location#cabinda,-5.56,12.19,https://anonymous.com/Location#angola
https://anonymous.com/Location#huambo,-12.7767,15.7347,https://anonymous.com/Location#angola
https://anonymous.com/Location#malanje,-9.5333,16.35,https://anonymous.com/Location#angola
https://anonymous.com/Location#benguela,-12.55,13.4167,https://anonymous.com/Location#angola
https://anonymous.com/Location#belas,-8.9983,13.265,https://anonymous.com/Location#angola
https://anonymous.com/Location#talatona,-8.9167,13.1833,https://anonymous.com/Location#angola
https://anonymous.com/Location#lobito,-12.3597,13.5308,https://anonymous.com/Location#angola
https://anonymous.com/Location#saurimo,-9.65,20.4,https://anonymous.com/Location#angola
https://anonymous.com/Location#cubal,-13.1117,14.3672,https://anonymous.com/Location#angola
https://anonymous.com/Location#luena,-11.7918,19.9062,https://anonymous.com/Location#angola
https://anonymous.com/Location#cuito,-12.3833,16.9333,https://anonymous.com/Location#angola
https://anonymous.com/Location#menongue,-14.6556,17.6842,https://anonymous.com/Location#angola
https://anonymous.com/Location#vilateixeiradasilva,-12.0072,15.7792,https://anonymous.com/Location#angola
https://anonymous.com/Location#sumbe,-11.2053,13.8417,https://anonymous.com/Location#angola
https://anonymous.com/Location#gabela,-10.85,14.3667,https://anonymous.com/Location#angola
https://anonymous.com/Location#ndulo,-11.4833,15.8333,https://anonymous.com/Location#angola
https://anonymous.com/Location#ganda,-13.0858,14.7417,https://anonymous.com/Location#angola
https://anonymous.com/Location#barradodande,-8.4728,13.3731,https://anonymous.com/Location#angola
https://anonymous.com/Location#soio,-6.1333,12.3667,https://anonymous.com/Location#angola
https://anonymous.com/Location#tchitato,-7.345,20.8198,https://anonymous.com/Location#angola
https://anonymous.com/Location#chibia,-15.1833,13.7,https://anonymous.com/Location#angola
https://anonymous.com/Location#ucuseles,-11.4047,14.3006,https://anonymous.com/Location#angola
https://anonymous.com/Location#cuango,-9.1444,18.0464,https://anonymous.com/Location#angola
https://anonymous.com/Location#dundo,-7.3801,20.8351,https://anonymous.com/Location#angola
https://anonymous.com/Location#catumbela,-12.4167,13.5333,https://anonymous.com/Location#angola
https://anonymous.com/Location#cazanga,-9.3,14.95,https://anonymous.com/Location#angola
https://anonymous.com/Location#caluquembe,-13.9208,14.5347,https://anonymous.com/Location#angola
https://anonymous.com/Location#catape,-13.7667,15.0833,https://anonymous.com/Location#angola
https://anonymous.com/Location#ebo,-11,14.6667,https://anonymous.com/Location#angola
https://anonymous.com/Location#bocoio,-12.4667,14.1333,https://anonymous.com/Location#angola
https://anonymous.com/Location#quibala,-10.7333,14.9833,https://anonymous.com/Location#angola
https://anonymous.com/Location#ndalatando,-9.3,14.9167,https://anonymous.com/Location#angola
https://anonymous.com/Location#quipungo,-14.8167,14.5167,https://anonymous.com/Location#angola
https://anonymous.com/Location#lucapa,-8.4228,20.7393,https://anonymous.com/Location#angola
https://anonymous.com/Location#mbanzakongo,-6.2667,14.25,https://anonymous.com/Location#angola
https://anonymous.com/Location#maqueladozombo,-6.05,15.1167,https://anonymous.com/Location#angola
https://anonymous.com/Location#namacunde,-17.3,15.85,https://anonymous.com/Location#angola
https://anonymous.com/Location#negage,-7.7667,15.2667,https://anonymous.com/Location#angola
https://anonymous.com/Location#portoamboim,-10.7183,13.75,https://anonymous.com/Location#angola
https://anonymous.com/Location#quimbele,-6.5167,16.2167,https://anonymous.com/Location#angola
https://anonymous.com/Location#londuimbali,-12.2186,15.285,https://anonymous.com/Location#angola
https://anonymous.com/Location#chicomba,-14.1333,14.9167,https://anonymous.com/Location#angola
https://anonymous.com/Location#chinguar,-12.55,16.3333,https://anonymous.com/Location#angola
https://anonymous.com/Location#catabola,-12.1167,17.3,https://anonymous.com/Location#angola
https://anonymous.com/Location#ondjiva,-17.0667,15.7333,https://anonymous.com/Location#angola
https://anonymous.com/Location#catchiungo,-12.7864,16.3233,https://anonymous.com/Location#angola
https://anonymous.com/Location#cassongue,-11.8333,15,https://anonymous.com/Location#angola
https://anonymous.com/Location#quilengues,-14.0814,14.0764,https://anonymous.com/Location#angola
https://anonymous.com/Location#mungo,-11.6667,16.1667,https://anonymous.com/Location#angola
https://anonymous.com/Location#balombo,-12.35,14.7667,https://anonymous.com/Location#angola
https://anonymous.com/Location#ndjamba,-14.7,16.0667,https://anonymous.com/Location#angola
https://anonymous.com/Location#caxito,-8.58,13.6642,https://anonymous.com/Location#angola
https://anonymous.com/Location#quilenda,-10.6333,14.3333,https://anonymous.com/Location#angola
https://anonymous.com/Location#caimbambo,-12.9,14.0833,https://anonymous.com/Location#angola
https://anonymous.com/Location#cambambe,-9.7586,14.5122,https://anonymous.com/Location#angola
https://anonymous.com/Location#uacucungo,-11.3583,15.1194,https://anonymous.com/Location#angola
https://anonymous.com/Location#luau,-10.7044,22.2283,https://anonymous.com/Location#angola
https://anonymous.com/Location#conda,-11.1667,14.5,https://anonymous.com/Location#angola
https://anonymous.com/Location#humpata,-15.0725,13.3678,https://anonymous.com/Location#angola
https://anonymous.com/Location#chongoroi,-13.5667,13.95,https://anonymous.com/Location#angola
https://anonymous.com/Location#longonjo,-12.9067,15.1864,https://anonymous.com/Location#angola
https://anonymous.com/Location#calandala,-9.0667,17.9,https://anonymous.com/Location#angola
https://anonymous.com/Location#capendacamulemba,-9.5647,18.7633,https://anonymous.com/Location#angola
https://anonymous.com/Location#kuvango,-14.4667,16.3,https://anonymous.com/Location#angola
https://anonymous.com/Location#chitembo,-13.5167,16.7667,https://anonymous.com/Location#angola
https://anonymous.com/Location#cunhinga,-12.2333,16.7833,https://anonymous.com/Location#angola
https://anonymous.com/Location#dondo,-9.6942,14.4228,https://anonymous.com/Location#angola
https://anonymous.com/Location#xangongo,-16.7467,14.9747,https://anonymous.com/Location#angola
https://anonymous.com/Location#cahama,-16.2833,14.3167,https://anonymous.com/Location#angola
https://anonymous.com/Location#sanzapombo,-7.3333,16,https://anonymous.com/Location#angola
https://anonymous.com/Location#chipindo,-13.8244,15.8,https://anonymous.com/Location#angola
https://anonymous.com/Location#camabatela,-8.1833,15.3667,https://anonymous.com/Location#angola
https://anonymous.com/Location#sungo,-11.2333,14.3167,https://anonymous.com/Location#angola
https://anonymous.com/Location#nambuangongo,-8.0167,14.2,https://anonymous.com/Location#angola
https://anonymous.com/Location#calulo,-10.0007,14.901,https://anonymous.com/Location#angola
https://anonymous.com/Location#camacupa,-12.0256,17.4686,https://anonymous.com/Location#angola
https://anonymous.com/Location#cuvelai,-15.6667,15.8,https://anonymous.com/Location#angola
https://anonymous.com/Location#cuemba,-12.15,18.0833,https://anonymous.com/Location#angola
https://anonymous.com/Location#portoalexandre,-15.8,11.85,https://anonymous.com/Location#angola
https://anonymous.com/Location#ucuma,-12.85,15.0667,https://anonymous.com/Location#angola
https://anonymous.com/Location#luquembo,-10.7333,17.8833,https://anonymous.com/Location#angola
https://anonymous.com/Location#cangola,-7.9667,15.8667,https://anonymous.com/Location#angola
https://anonymous.com/Location#cambundicatembo,-10.0756,17.5569,https://anonymous.com/Location#angola
https://anonymous.com/Location#cangandala,-9.7833,16.4333,https://anonymous.com/Location#angola
https://anonymous.com/Location#mucaba,-7.1667,14.9333,https://anonymous.com/Location#angola
https://anonymous.com/Location#cuchi,-14.65,16.9,https://anonymous.com/Location#angola
https://anonymous.com/Location#cuitocuanavale,-15.1667,19.1667,https://anonymous.com/Location#angola
https://anonymous.com/Location#cacuso,-8.2333,15.35,https://anonymous.com/Location#angola
https://anonymous.com/Location#puri,-7.6833,15.6,https://anonymous.com/Location#angola
https://anonymous.com/Location#quilevo,-7.6167,15.05,https://anonymous.com/Location#angola
https://anonymous.com/Location#golungoalto,-9.1333,14.7667,https://anonymous.com/Location#angola
https://anonymous.com/Location#muconda,-10.6,21.3167,https://anonymous.com/Location#angola
https://anonymous.com/Location#massango,-11.3167,14.9333,https://anonymous.com/Location#angola
https://anonymous.com/Location#bembe,-7.1,14.45,https://anonymous.com/Location#angola
https://anonymous.com/Location#bucozau,-4.795,12.5467,https://anonymous.com/Location#angola
https://anonymous.com/Location#virei,-15.7167,12.95,https://anonymous.com/Location#angola
https://anonymous.com/Location#cacolo,-10.1333,19.2667,https://anonymous.com/Location#angola
https://anonymous.com/Location#tchindjendje,-12.8167,14.9333,https://anonymous.com/Location#angola
https://anonymous.com/Location#mucari,-9.4667,16.9167,https://anonymous.com/Location#angola
https://anonymous.com/Location#dala,-11.0342,20.2036,https://anonymous.com/Location#angola
https://anonymous.com/Location#marimba,-8.3667,17.0167,https://anonymous.com/Location#angola
https://anonymous.com/Location#ambriz,-7.85,13.1167,https://anonymous.com/Location#angola
https://anonymous.com/Location#lucala,-9.6333,14.0667,https://anonymous.com/Location#angola
https://anonymous.com/Location#sambacango,-9.1,15.55,https://anonymous.com/Location#angola
https://anonymous.com/Location#caombo,-8.7,16.5167,https://anonymous.com/Location#angola
https://anonymous.com/Location#quirima,-10.9,18.0833,https://anonymous.com/Location#angola
https://anonymous.com/Location#cacongo,-5.2333,12.1333,https://anonymous.com/Location#angola
https://anonymous.com/Location#quela,-9.3833,17.05,https://anonymous.com/Location#angola
https://anonymous.com/Location#luacano,-11.2167,21.65,https://anonymous.com/Location#angola
https://anonymous.com/Location#lubalo,-9.15,19.2833,https://anonymous.com/Location#angola
https://anonymous.com/Location#quibaxi,-8.5,14.5833,https://anonymous.com/Location#angola
https://anonymous.com/Location#ambiula,-7.4333,14.65,https://anonymous.com/Location#angola
https://anonymous.com/Location#bolongongo,-8.4667,15.25,https://anonymous.com/Location#angola
https://anonymous.com/Location#nzeto,-7.229,12.865,https://anonymous.com/Location#angola
https://anonymous.com/Location#songo,-7.3496,14.85,https://anonymous.com/Location#angola
https://anonymous.com/Location#banga,-8.7333,15.1667,https://anonymous.com/Location#angola
https://anonymous.com/Location#quiculungo,-8.5167,15.3167,https://anonymous.com/Location#angola
https://anonymous.com/Location#chibemba,-15.7355,13.8905,https://anonymous.com/Location#angola
https://anonymous.com/Location#cazombo,-11.9058,22.9217,https://anonymous.com/Location#angola
https://anonymous.com/Location#balacangamba,-13.6833,19.8667,https://anonymous.com/Location#angola
https://anonymous.com/Location#calenga,-11.3196,16.2,https://anonymous.com/Location#angola
https://anonymous.com/Location#tchitado,-17.3167,13.9167,https://anonymous.com/Location#angola
https://anonymous.com/Location#thevalley,18.2167,-63.05,https://anonymous.com/Location#anguilla
https://anonymous.com/Location#buenosaires,-34.5997,-58.3819,https://anonymous.com/Location#argentina
https://anonymous.com/Location#rosario,-32.9575,-60.6394,https://anonymous.com/Location#argentina
https://anonymous.com/Location#santiagodelestero,-27.7833,-64.2667,https://anonymous.com/Location#argentina
https://anonymous.com/Location#comodororivadavia,-45.8647,-67.4808,https://anonymous.com/Location#argentina
https://anonymous.com/Location#mardelplata,-38,-57.55,https://anonymous.com/Location#argentina
https://anonymous.com/Location#salta,-24.7833,-65.4167,https://anonymous.com/Location#argentina
https://anonymous.com/Location#sanjuan,-31.5342,-68.5261,https://anonymous.com/Location#argentina
https://anonymous.com/Location#florenciovarela,-34.8167,-58.2833,https://anonymous.com/Location#argentina
https://anonymous.com/Location#santafe,-31.6333,-60.7,https://anonymous.com/Location#argentina
https://anonymous.com/Location#corrientes,-27.4833,-58.8167,https://anonymous.com/Location#argentina
https://anonymous.com/Location#sansalvadordejujuy,-24.1833,-65.3,https://anonymous.com/Location#argentina
https://anonymous.com/Location#resistencia,-27.4514,-58.9867,https://anonymous.com/Location#argentina
https://anonymous.com/Location#posadas,-27.3667,-55.9,https://anonymous.com/Location#argentina
https://anonymous.com/Location#quilmes,-34.7167,-58.2667,https://anonymous.com/Location#argentina
https://anonymous.com/Location#merlo,-34.6653,-58.7275,https://anonymous.com/Location#argentina
https://anonymous.com/Location#formosa,-26.1833,-58.1833,https://anonymous.com/Location#argentina
https://anonymous.com/Location#banfield,-34.75,-58.3833,https://anonymous.com/Location#argentina
https://anonymous.com/Location#isidrocasanova,-34.7,-58.5833,https://anonymous.com/Location#argentina
https://anonymous.com/Location#laplata,-34.9211,-57.9544,https://anonymous.com/Location#argentina
https://anonymous.com/Location#godoycruz,-32.9167,-68.8333,https://anonymous.com/Location#argentina
https://anonymous.com/Location#lasheras,-32.85,-68.8167,https://anonymous.com/Location#argentina
https://anonymous.com/Location#berazategui,-34.7167,-58.25,https://anonymous.com/Location#argentina
https://anonymous.com/Location#larioja,-29.4125,-66.8542,https://anonymous.com/Location#argentina
https://anonymous.com/Location#sanluis,-33.3,-66.3333,https://anonymous.com/Location#argentina
https://anonymous.com/Location#sanmiguel,-34.5333,-58.7167,https://anonymous.com/Location#argentina
https://anonymous.com/Location#generalroca,-39.0333,-67.5833,https://anonymous.com/Location#argentina
https://anonymous.com/Location#catamarca,-28.4667,-65.7833,https://anonymous.com/Location#argentina
https://anonymous.com/Location#rafaelcastillo,-34.7167,-58.6167,https://anonymous.com/Location#argentina
https://anonymous.com/Location#florenciovarela,-34.8167,-58.3833,https://anonymous.com/Location#argentina
https://anonymous.com/Location#concordia,-31.4,-58.0333,https://anonymous.com/Location#argentina
https://anonymous.com/Location#sanjusto,-34.6833,-58.55,https://anonymous.com/Location#argentina
https://anonymous.com/Location#temperley,-34.7667,-58.3833,https://anonymous.com/Location#argentina
https://anonymous.com/Location#lomasdezamora,-34.7667,-58.4,https://anonymous.com/Location#argentina
https://anonymous.com/Location#sanrafael,-34.6,-68.3333,https://anonymous.com/Location#argentina
https://anonymous.com/Location#mendoza,-32.8833,-68.8167,https://anonymous.com/Location#argentina
https://anonymous.com/Location#tandil,-37.3167,-59.1333,https://anonymous.com/Location#argentina
https://anonymous.com/Location#puertomadryn,-42.7667,-65.05,https://anonymous.com/Location#argentina
https://anonymous.com/Location#bernal,-34.7,-58.2833,https://anonymous.com/Location#argentina
https://anonymous.com/Location#castelar,-34.6667,-58.6667,https://anonymous.com/Location#argentina
https://anonymous.com/Location#sancarlosdebariloche,-41.15,-71.3,https://anonymous.com/Location#argentina
https://anonymous.com/Location#villamercedes,-33.6667,-65.4667,https://anonymous.com/Location#argentina
https://anonymous.com/Location#villakrause,-31.5833,-68.5333,https://anonymous.com/Location#argentina
https://anonymous.com/Location#labanda,-27.7333,-64.25,https://anonymous.com/Location#argentina
https://anonymous.com/Location#villaluzuriaga,-34.6667,-58.5833,https://anonymous.com/Location#argentina
https://anonymous.com/Location#caseros,-34.6106,-58.5625,https://anonymous.com/Location#argentina
https://anonymous.com/Location#libertad,-34.6833,-58.6833,https://anonymous.com/Location#argentina
https://anonymous.com/Location#santarosa,-36.6167,-64.2833,https://anonymous.com/Location#argentina
https://anonymous.com/Location#burzaco,-34.8167,-58.3667,https://anonymous.com/Location#argentina
https://anonymous.com/Location#ciudadgeneralbelgrano,-34.7167,-58.5333,https://anonymous.com/Location#argentina
https://anonymous.com/Location#sanfranciscosolano,-34.7667,-58.3167,https://anonymous.com/Location#argentina
https://anonymous.com/Location#montechingolo,-34.7333,-58.35,https://anonymous.com/Location#argentina
https://anonymous.com/Location#grandbourg,-34.4833,-58.7167,https://anonymous.com/Location#argentina
https://anonymous.com/Location#remediosdeescalada,-34.7167,-58.4,https://anonymous.com/Location#argentina
https://anonymous.com/Location#ezpeleta,-34.7517,-58.2344,https://anonymous.com/Location#argentina
https://anonymous.com/Location#villacelina,-34.7006,-58.4825,https://anonymous.com/Location#argentina
https://anonymous.com/Location#elpalomar,-34.6167,-58.5833,https://anonymous.com/Location#argentina
https://anonymous.com/Location#lomasdelmirador,-34.6667,-58.5297,https://anonymous.com/Location#argentina
https://anonymous.com/Location#ciudadela,-34.6333,-58.5333,https://anonymous.com/Location#argentina
https://anonymous.com/Location#viedma,-40.8,-63,https://anonymous.com/Location#argentina
https://anonymous.com/Location#bellavista,-34.5333,-58.6667,https://anonymous.com/Location#argentina
https://anonymous.com/Location#gerli,-34.6833,-58.3667,https://anonymous.com/Location#argentina
https://anonymous.com/Location#wilde,-34.7,-58.3167,https://anonymous.com/Location#argentina
https://anonymous.com/Location#lospolvorines,-34.5,-58.7,https://anonymous.com/Location#argentina
https://anonymous.com/Location#hurlingham,-34.5883,-58.6392,https://anonymous.com/Location#argentina
https://anonymous.com/Location#beccar,-34.4667,-58.5167,https://anonymous.com/Location#argentina
https://anonymous.com/Location#glew,-34.8833,-58.3833,https://anonymous.com/Location#argentina
https://anonymous.com/Location#rafaelcalzada,-34.7833,-58.3667,https://anonymous.com/Location#argentina
https://anonymous.com/Location#marianoacosta,-34.7167,-58.7833,https://anonymous.com/Location#argentina
https://anonymous.com/Location#ushuaia,-54.8019,-68.3031,https://anonymous.com/Location#argentina
https://anonymous.com/Location#florida,-34.5167,-58.5,https://anonymous.com/Location#argentina
https://anonymous.com/Location#longchamps,-34.85,-58.3833,https://anonymous.com/Location#argentina
https://anonymous.com/Location#villaalsina,-34.6667,-58.4167,https://anonymous.com/Location#argentina
https://anonymous.com/Location#sanisidro,-34.4667,-58.5167,https://anonymous.com/Location#argentina
https://anonymous.com/Location#llavallol,-34.7667,-58.3833,https://anonymous.com/Location#argentina
https://anonymous.com/Location#docksur,-34.6417,-58.3478,https://anonymous.com/Location#argentina
https://anonymous.com/Location#claypole,-34.8,-58.3333,https://anonymous.com/Location#argentina
https://anonymous.com/Location#haedo,-34.65,-58.6,https://anonymous.com/Location#argentina
https://anonymous.com/Location#munro,-34.5333,-58.5167,https://anonymous.com/Location#argentina
https://anonymous.com/Location#villaadelina,-34.5175,-58.5475,https://anonymous.com/Location#argentina
https://anonymous.com/Location#adrogue,-34.8,-58.3833,https://anonymous.com/Location#argentina
https://anonymous.com/Location#avellaneda,-34.6625,-58.3678,https://anonymous.com/Location#argentina
https://anonymous.com/Location#tapiales,-34.7058,-58.5047,https://anonymous.com/Location#argentina
https://anonymous.com/Location#donbosco,-34.7,-58.2833,https://anonymous.com/Location#argentina
https://anonymous.com/Location#billinghurst,-34.5667,-58.5333,https://anonymous.com/Location#argentina
https://anonymous.com/Location#rawson,-43.3,-65.1,https://anonymous.com/Location#argentina
https://anonymous.com/Location#villasarmiento,-34.6333,-58.5667,https://anonymous.com/Location#argentina
https://anonymous.com/Location#lalucila,-34.4833,-58.4833,https://anonymous.com/Location#argentina
https://anonymous.com/Location#aldobonzi,-34.7083,-58.5181,https://anonymous.com/Location#argentina
https://anonymous.com/Location#acasusso,-34.4667,-58.5167,https://anonymous.com/Location#argentina
https://anonymous.com/Location#malvinasargentinas,-31.3697,-64.0531,https://anonymous.com/Location#argentina
https://anonymous.com/Location#trelew,-43.25,-65.3,https://anonymous.com/Location#argentina
https://anonymous.com/Location#rafaela,-31.2667,-61.4833,https://anonymous.com/Location#argentina
https://anonymous.com/Location#necochea,-38.55,-58.7333,https://anonymous.com/Location#argentina
https://anonymous.com/Location#chimbas,-31.5,-68.5319,https://anonymous.com/Location#argentina
https://anonymous.com/Location#berisso,-34.8728,-57.8858,https://anonymous.com/Location#argentina
https://anonymous.com/Location#pergamino,-33.8836,-60.5669,https://anonymous.com/Location#argentina
https://anonymous.com/Location#cipolletti,-38.9333,-67.9833,https://anonymous.com/Location#argentina
https://anonymous.com/Location#campana,-34.1667,-58.9167,https://anonymous.com/Location#argentina
https://anonymous.com/Location#rivadavia,-31.5303,-68.5947,https://anonymous.com/Location#argentina
https://anonymous.com/Location#rivadavia,-33.1833,-68.4667,https://anonymous.com/Location#argentina
https://anonymous.com/Location#pilar,-34.4588,-58.9142,https://anonymous.com/Location#argentina
https://anonymous.com/Location#venadotuerto,-33.75,-61.9667,https://anonymous.com/Location#argentina
https://anonymous.com/Location#reconquista,-29.1443,-59.6438,https://anonymous.com/Location#argentina
https://anonymous.com/Location#goya,-29.1333,-59.25,https://anonymous.com/Location#argentina
https://anonymous.com/Location#sanpedro,-33.6794,-59.6669,https://anonymous.com/Location#argentina
https://anonymous.com/Location#dontorcuato,-34.5,-58.6167,https://anonymous.com/Location#argentina
https://anonymous.com/Location#mercedes,-34.65,-59.4333,https://anonymous.com/Location#argentina
https://anonymous.com/Location#tartagal,-22.5,-63.8333,https://anonymous.com/Location#argentina
https://anonymous.com/Location#villacarlospaz,-31.4,-64.5167,https://anonymous.com/Location#argentina
https://anonymous.com/Location#sanfrancisco,-31.4356,-62.0714,https://anonymous.com/Location#argentina
https://anonymous.com/Location#sanpedro,-24.2196,-64.87,https://anonymous.com/Location#argentina
https://anonymous.com/Location#puntaalta,-38.88,-62.075,https://anonymous.com/Location#argentina
https://anonymous.com/Location#chivilcoy,-34.9,-60.0167,https://anonymous.com/Location#argentina
https://anonymous.com/Location#eldorado,-26.4,-54.6333,https://anonymous.com/Location#argentina
https://anonymous.com/Location#generalpico,-35.6667,-63.7333,https://anonymous.com/Location#argentina
https://anonymous.com/Location#azul,-36.7833,-59.85,https://anonymous.com/Location#argentina
https://anonymous.com/Location#ensenada,-34.8644,-57.9103,https://anonymous.com/Location#argentina
https://anonymous.com/Location#barranqueras,-27.4833,-58.9333,https://anonymous.com/Location#argentina
https://anonymous.com/Location#guernica,-34.9167,-58.3833,https://anonymous.com/Location#argentina
https://anonymous.com/Location#clorinda,-25.2833,-57.7167,https://anonymous.com/Location#argentina
https://anonymous.com/Location#cruzdeleje,-30.7333,-64.8,https://anonymous.com/Location#argentina
https://anonymous.com/Location#caletaolivia,-46.4333,-67.5333,https://anonymous.com/Location#argentina
https://anonymous.com/Location#eltalardepacheco,-34.4719,-58.655,https://anonymous.com/Location#argentina
https://anonymous.com/Location#yerbabuena,-26.8167,-65.3167,https://anonymous.com/Location#argentina
https://anonymous.com/Location#villaguay,-31.85,-59.0167,https://anonymous.com/Location#argentina
https://anonymous.com/Location#lareja,-34.6394,-58.8283,https://anonymous.com/Location#argentina
https://anonymous.com/Location#altagracia,-31.6667,-64.4333,https://anonymous.com/Location#argentina
https://anonymous.com/Location#sanlorenzo,-28.12,-58.77,https://anonymous.com/Location#argentina
https://anonymous.com/Location#catriel,-37.8667,-67.8333,https://anonymous.com/Location#argentina
https://anonymous.com/Location#tresarroyos,-38.3667,-60.2667,https://anonymous.com/Location#argentina
https://anonymous.com/Location#sanlorenzo,-32.75,-60.7333,https://anonymous.com/Location#argentina
https://anonymous.com/Location#pinamar,-37.1,-56.85,https://anonymous.com/Location#argentina
https://anonymous.com/Location#balcarce,-37.8456,-58.2578,https://anonymous.com/Location#argentina
https://anonymous.com/Location#generalpacheco,-34.45,-58.65,https://anonymous.com/Location#argentina
https://anonymous.com/Location#esperanza,-31.4167,-60.9333,https://anonymous.com/Location#argentina
https://anonymous.com/Location#pasodeloslibres,-29.7167,-57.0833,https://anonymous.com/Location#argentina
https://anonymous.com/Location#gualeguay,-33.15,-59.3333,https://anonymous.com/Location#argentina
https://anonymous.com/Location#marcospaz,-34.7667,-58.8333,https://anonymous.com/Location#argentina
https://anonymous.com/Location#alderetes,-26.8167,-65.1333,https://anonymous.com/Location#argentina
https://anonymous.com/Location#chacabuco,-34.6333,-60.4667,https://anonymous.com/Location#argentina
https://anonymous.com/Location#granaderobaigorria,-32.85,-60.7,https://anonymous.com/Location#argentina
https://anonymous.com/Location#esquel,-42.9,-71.3167,https://anonymous.com/Location#argentina
https://anonymous.com/Location#nuevedejulio,-35.45,-60.8833,https://anonymous.com/Location#argentina
https://anonymous.com/Location#casilda,-33.05,-61.1667,https://anonymous.com/Location#argentina
https://anonymous.com/Location#centenario,-38.8,-68.1333,https://anonymous.com/Location#argentina
https://anonymous.com/Location#bellville,-32.6333,-62.6833,https://anonymous.com/Location#argentina
https://anonymous.com/Location#chilecito,-29.1667,-67.5,https://anonymous.com/Location#argentina
https://anonymous.com/Location#mercedes,-29.2,-58.0833,https://anonymous.com/Location#argentina
https://anonymous.com/Location#citybell,-34.85,-58.05,https://anonymous.com/Location#argentina
https://anonymous.com/Location#bragado,-35.1167,-60.5,https://anonymous.com/Location#argentina
https://anonymous.com/Location#lacalera,-31.3439,-64.3353,https://anonymous.com/Location#argentina
https://anonymous.com/Location#plottier,-38.95,-68.2333,https://anonymous.com/Location#argentina
https://anonymous.com/Location#aguilares,-27.4333,-65.6167,https://anonymous.com/Location#argentina
https://anonymous.com/Location#quitilipi,-26.8667,-60.2167,https://anonymous.com/Location#argentina
https://anonymous.com/Location#zapala,-38.9,-70.0667,https://anonymous.com/Location#argentina
https://anonymous.com/Location#lobos,-35.1833,-59.0833,https://anonymous.com/Location#argentina
https://anonymous.com/Location#pichanal,-23.3167,-64.2167,https://anonymous.com/Location#argentina
https://anonymous.com/Location#gobernadorvirasora,-28.05,-56.0333,https://anonymous.com/Location#argentina
https://anonymous.com/Location#victoria,-32.6167,-60.1667,https://anonymous.com/Location#argentina
https://anonymous.com/Location#miramar,-38.2667,-57.8333,https://anonymous.com/Location#argentina
https://anonymous.com/Location#villaregina,-39.1,-67.0667,https://anonymous.com/Location#argentina
https://anonymous.com/Location#generalalvear,-34.9667,-67.7,https://anonymous.com/Location#argentina
https://anonymous.com/Location#villadolores,-31.9333,-65.2,https://anonymous.com/Location#argentina
https://anonymous.com/Location#villagesell,-37.2556,-56.9681,https://anonymous.com/Location#argentina
https://anonymous.com/Location#bellavista,-28.4667,-59.05,https://anonymous.com/Location#argentina
https://anonymous.com/Location#baradero,-33.8,-59.5167,https://anonymous.com/Location#argentina
https://anonymous.com/Location#villaallende,-31.3,-64.3,https://anonymous.com/Location#argentina
https://anonymous.com/Location#caucete,-31.65,-68.2833,https://anonymous.com/Location#argentina
https://anonymous.com/Location#lincoln,-34.85,-61.5167,https://anonymous.com/Location#argentina
https://anonymous.com/Location#lasflores,-36.0139,-59.1,https://anonymous.com/Location#argentina
https://anonymous.com/Location#charata,-27.2167,-61.2,https://anonymous.com/Location#argentina
https://anonymous.com/Location#arrecifes,-34.0667,-60.1167,https://anonymous.com/Location#argentina
https://anonymous.com/Location#rosariodelafrontera,-25.8,-64.9667,https://anonymous.com/Location#argentina
https://anonymous.com/Location#dolores,-36.3167,-57.6667,https://anonymous.com/Location#argentina
https://anonymous.com/Location#firmat,-33.45,-61.4833,https://anonymous.com/Location#argentina
https://anonymous.com/Location#tresisletas,-26.35,-60.4167,https://anonymous.com/Location#argentina
https://anonymous.com/Location#lapaz,-30.75,-59.65,https://anonymous.com/Location#argentina
https://anonymous.com/Location#funes,-32.9167,-60.8167,https://anonymous.com/Location#argentina
https://anonymous.com/Location#montecaseros,-30.25,-57.65,https://anonymous.com/Location#argentina
https://anonymous.com/Location#veinticincodemayo,-35.4167,-60.1667,https://anonymous.com/Location#argentina
https://anonymous.com/Location#avellaneda,-29.1175,-59.6583,https://anonymous.com/Location#argentina
https://anonymous.com/Location#melchorromero,-34.9492,-58.0472,https://anonymous.com/Location#argentina
https://anonymous.com/Location#monteros,-27.1667,-65.5,https://anonymous.com/Location#argentina
https://anonymous.com/Location#allen,-38.9667,-67.8333,https://anonymous.com/Location#argentina
https://anonymous.com/Location#cincosaltos,-38.8167,-68.0667,https://anonymous.com/Location#argentina
https://anonymous.com/Location#arroyito,-31.4167,-63.05,https://anonymous.com/Location#argentina
https://anonymous.com/Location#machagai,-26.9167,-60.0333,https://anonymous.com/Location#argentina
https://anonymous.com/Location#sanjusto,-30.7833,-60.5833,https://anonymous.com/Location#argentina
https://anonymous.com/Location#rosariodelerma,-24.9833,-65.5833,https://anonymous.com/Location#argentina
https://anonymous.com/Location#alejandrokorn,-34.9667,-58.3667,https://anonymous.com/Location#argentina
https://anonymous.com/Location#sanisidrodelules,-26.9333,-65.35,https://anonymous.com/Location#argentina
https://anonymous.com/Location#carloscasares,-35.6167,-61.3667,https://anonymous.com/Location#argentina
https://anonymous.com/Location#elcalafate,-50.3333,-72.2833,https://anonymous.com/Location#argentina
https://anonymous.com/Location#picotruncado,-46.795,-67.955,https://anonymous.com/Location#argentina
https://anonymous.com/Location#matheu,-34.3667,-58.8333,https://anonymous.com/Location#argentina
https://anonymous.com/Location#arroyoseco,-33.1667,-60.5,https://anonymous.com/Location#argentina
https://anonymous.com/Location#profesorsalvadormazza,-22.05,-63.7,https://anonymous.com/Location#argentina
https://anonymous.com/Location#sunchales,-30.9333,-61.5667,https://anonymous.com/Location#argentina
https://anonymous.com/Location#laboulaye,-34.1167,-63.4,https://anonymous.com/Location#argentina
https://anonymous.com/Location#carmendepatagones,-40.7833,-62.9667,https://anonymous.com/Location#argentina
https://anonymous.com/Location#brandsen,-35.1667,-58.2167,https://anonymous.com/Location#argentina
https://anonymous.com/Location#crespo,-32.0333,-60.3167,https://anonymous.com/Location#argentina
https://anonymous.com/Location#vera,-29.4667,-60.2167,https://anonymous.com/Location#argentina
https://anonymous.com/Location#diamante,-32.0667,-60.65,https://anonymous.com/Location#argentina
https://anonymous.com/Location#villanueva,-32.4331,-63.2475,https://anonymous.com/Location#argentina
https://anonymous.com/Location#carlosspegazzini,-34.8833,-58.5667,https://anonymous.com/Location#argentina
https://anonymous.com/Location#rufino,-34.2667,-62.7,https://anonymous.com/Location#argentina
https://anonymous.com/Location#unquillo,-31.2333,-64.3167,https://anonymous.com/Location#argentina
https://anonymous.com/Location#saladas,-28.25,-58.6167,https://anonymous.com/Location#argentina
https://anonymous.com/Location#coronda,-31.9667,-60.9167,https://anonymous.com/Location#argentina
https://anonymous.com/Location#generaljuanmadariaga,-37.0167,-57.1333,https://anonymous.com/Location#argentina
https://anonymous.com/Location#generaldeheza,-32.7564,-63.7889,https://anonymous.com/Location#argentina
https://anonymous.com/Location#lasheras,-46.55,-68.95,https://anonymous.com/Location#argentina
https://anonymous.com/Location#santaelena,-30.95,-59.8,https://anonymous.com/Location#argentina
https://anonymous.com/Location#cerrillos,-24.9,-65.4833,https://anonymous.com/Location#argentina
https://anonymous.com/Location#puertorico,-26.8,-55.0167,https://anonymous.com/Location#argentina
https://anonymous.com/Location#veinticincodemayo,-37.7712,-67.7174,https://anonymous.com/Location#argentina
https://anonymous.com/Location#ayacucho,-37.1333,-58.4667,https://anonymous.com/Location#argentina
https://anonymous.com/Location#morteros,-30.7,-62,https://anonymous.com/Location#argentina
https://anonymous.com/Location#laquiaca,-22.1042,-65.5972,https://anonymous.com/Location#argentina
https://anonymous.com/Location#daireaux,-36.6,-61.75,https://anonymous.com/Location#argentina
https://anonymous.com/Location#lafalda,-31.0833,-64.5,https://anonymous.com/Location#argentina
https://anonymous.com/Location#generalvillegas,-35.0333,-63.0167,https://anonymous.com/Location#argentina
https://anonymous.com/Location#sanantoniooeste,-40.7333,-64.95,https://anonymous.com/Location#argentina
https://anonymous.com/Location#federal,-30.95,-58.8,https://anonymous.com/Location#argentina
https://anonymous.com/Location#coquimbito,-32.9667,-68.75,https://anonymous.com/Location#argentina
https://anonymous.com/Location#santarosa,-33.25,-68.15,https://anonymous.com/Location#argentina
https://anonymous.com/Location#generalpinedo,-27.3167,-61.2833,https://anonymous.com/Location#argentina
https://anonymous.com/Location#wanda,-25.9667,-54.5833,https://anonymous.com/Location#argentina
https://anonymous.com/Location#villadelrosario,-31.5833,-63.5333,https://anonymous.com/Location#argentina
https://anonymous.com/Location#sanluisdelpalmar,-27.5167,-58.5667,https://anonymous.com/Location#argentina
https://anonymous.com/Location#villaparanacito,-33.7,-58.6833,https://anonymous.com/Location#argentina
https://anonymous.com/Location#bellavista,-27.0333,-65.3,https://anonymous.com/Location#argentina
https://anonymous.com/Location#villaojodeagua,-29.5167,-63.7,https://anonymous.com/Location#argentina
https://anonymous.com/Location#pilar,-31.6833,-63.9,https://anonymous.com/Location#argentina
https://anonymous.com/Location#carmendeareco,-34.3858,-59.8294,https://anonymous.com/Location#argentina
https://anonymous.com/Location#tostado,-29.2333,-61.7667,https://anonymous.com/Location#argentina
https://anonymous.com/Location#ceres,-29.8667,-61.95,https://anonymous.com/Location#argentina
https://anonymous.com/Location#puertodeseado,-47.75,-65.9167,https://anonymous.com/Location#argentina
https://anonymous.com/Location#lasrosas,-32.4833,-61.5833,https://anonymous.com/Location#argentina
https://anonymous.com/Location#sanjavier,-30.5833,-59.95,https://anonymous.com/Location#argentina
https://anonymous.com/Location#generalbelgrano,-35.7667,-58.5,https://anonymous.com/Location#argentina
https://anonymous.com/Location#generalviamonte,-35,-61.0333,https://anonymous.com/Location#argentina
https://anonymous.com/Location#ingenieromaschwitz,-34.3667,-58.75,https://anonymous.com/Location#argentina
https://anonymous.com/Location#empedrado,-27.9333,-58.7833,https://anonymous.com/Location#argentina
https://anonymous.com/Location#plazahuincul,-38.9338,-69.1987,https://anonymous.com/Location#argentina
https://anonymous.com/Location#oncativo,-31.9167,-63.6667,https://anonymous.com/Location#argentina
https://anonymous.com/Location#generalenriquemosconi,-22.6,-63.8167,https://anonymous.com/Location#argentina
https://anonymous.com/Location#chosmalal,-37.3833,-70.2667,https://anonymous.com/Location#argentina
https://anonymous.com/Location#villanueva,-32.9,-68.7667,https://anonymous.com/Location#argentina
https://anonymous.com/Location#chamical,-30.3667,-66.3167,https://anonymous.com/Location#argentina
https://anonymous.com/Location#santarosadecalamuchita,-32.0667,-64.5333,https://anonymous.com/Location#argentina
https://anonymous.com/Location#generallasheras,-34.9333,-58.95,https://anonymous.com/Location#argentina
https://anonymous.com/Location#rosariodeltala,-32.3,-59.1333,https://anonymous.com/Location#argentina
https://anonymous.com/Location#sansalvador,-31.6167,-58.5,https://anonymous.com/Location#argentina
https://anonymous.com/Location#generalacha,-37.3833,-64.6,https://anonymous.com/Location#argentina
https://anonymous.com/Location#lacarlota,-33.4333,-63.3,https://anonymous.com/Location#argentina
https://anonymous.com/Location#montequemado,-25.8036,-62.8303,https://anonymous.com/Location#argentina
https://anonymous.com/Location#lagunapaiva,-31.3039,-60.6589,https://anonymous.com/Location#argentina
https://anonymous.com/Location#lasparejas,-32.6833,-61.5333,https://anonymous.com/Location#argentina
https://anonymous.com/Location#laslomitas,-24.7072,-60.5944,https://anonymous.com/Location#argentina
https://anonymous.com/Location#presidenciadelaplaza,-26.9833,-59.8333,https://anonymous.com/Location#argentina
https://anonymous.com/Location#justodaract,-33.8667,-65.1667,https://anonymous.com/Location#argentina
https://anonymous.com/Location#villaberthet,-27.2667,-60.4167,https://anonymous.com/Location#argentina
https://anonymous.com/Location#recreo,-29.2667,-65.0667,https://anonymous.com/Location#argentina
https://anonymous.com/Location#cafayate,-26.0833,-65.9667,https://anonymous.com/Location#argentina
https://anonymous.com/Location#oliva,-32.0333,-63.5667,https://anonymous.com/Location#argentina
https://anonymous.com/Location#navarro,-35.0167,-59.2667,https://anonymous.com/Location#argentina
https://anonymous.com/Location#coroneldorrego,-38.7,-61.2667,https://anonymous.com/Location#argentina
https://anonymous.com/Location#tinogasta,-28.0667,-67.5667,https://anonymous.com/Location#argentina
https://anonymous.com/Location#humahuaca,-23.2,-65.35,https://anonymous.com/Location#argentina
https://anonymous.com/Location#capilladelmonte,-30.85,-64.5167,https://anonymous.com/Location#argentina
https://anonymous.com/Location#armstrong,-32.7833,-61.6,https://anonymous.com/Location#argentina
https://anonymous.com/Location#hernando,-32.4167,-63.7333,https://anonymous.com/Location#argentina
https://anonymous.com/Location#sanbernardo,-27.2667,-60.7,https://anonymous.com/Location#argentina
https://anonymous.com/Location#sancarloscentro,-31.7333,-61.1,https://anonymous.com/Location#argentina
https://anonymous.com/Location#villalaangostura,-40.7625,-71.6463,https://anonymous.com/Location#argentina
https://anonymous.com/Location#villanougues,-26.8578,-65.3756,https://anonymous.com/Location#argentina
https://anonymous.com/Location#sanroque,-28.5667,-58.7167,https://anonymous.com/Location#argentina
https://anonymous.com/Location#sarmiento,-45.6,-69.0833,https://anonymous.com/Location#argentina
https://anonymous.com/Location#campolargo,-26.8,-60.8333,https://anonymous.com/Location#argentina
https://anonymous.com/Location#ingenierowhite,-38.7667,-62.2667,https://anonymous.com/Location#argentina
https://anonymous.com/Location#frontera,-31.4278,-62.0619,https://anonymous.com/Location#argentina
https://anonymous.com/Location#corzuela,-26.9333,-60.9667,https://anonymous.com/Location#argentina
https://anonymous.com/Location#corraldebustos,-33.2833,-62.2,https://anonymous.com/Location#argentina
https://anonymous.com/Location#leones,-32.6617,-62.2967,https://anonymous.com/Location#argentina
https://anonymous.com/Location#villaelisa,-32.1667,-58.4,https://anonymous.com/Location#argentina
https://anonymous.com/Location#choelechoel,-39.2667,-65.6833,https://anonymous.com/Location#argentina
https://anonymous.com/Location#laleonesa,-27.05,-58.7167,https://anonymous.com/Location#argentina
https://anonymous.com/Location#brinkmann,-30.8669,-62.0336,https://anonymous.com/Location#argentina
https://anonymous.com/Location#alcorta,-33.5333,-61.1167,https://anonymous.com/Location#argentina
https://anonymous.com/Location#ciudaddeloreto,-28.3,-64.2,https://anonymous.com/Location#argentina
https://anonymous.com/Location#generalalvear,-36.0333,-60.0167,https://anonymous.com/Location#argentina
https://anonymous.com/Location#puertotirol,-27.3667,-59.0667,https://anonymous.com/Location#argentina
https://anonymous.com/Location#basavilbaso,-32.3667,-58.8833,https://anonymous.com/Location#argentina
https://anonymous.com/Location#henderson,-36.2833,-61.7167,https://anonymous.com/Location#argentina
https://anonymous.com/Location#lapaz,-33.4667,-67.55,https://anonymous.com/Location#argentina
https://anonymous.com/Location#abrapampa,-22.7167,-65.7,https://anonymous.com/Location#argentina
https://anonymous.com/Location#castelli,-25.95,-60.6167,https://anonymous.com/Location#argentina
https://anonymous.com/Location#magdalena,-35.0833,-57.5167,https://anonymous.com/Location#argentina
https://anonymous.com/Location#monterico,-24.4514,-65.1667,https://anonymous.com/Location#argentina
https://anonymous.com/Location#embalse,-32.1833,-64.4167,https://anonymous.com/Location#argentina
https://anonymous.com/Location#sauce,-30.0667,-58.7667,https://anonymous.com/Location#argentina
https://anonymous.com/Location#radatilly,-45.9333,-67.5333,https://anonymous.com/Location#argentina
https://anonymous.com/Location#villaaberastain,-31.65,-68.5833,https://anonymous.com/Location#argentina
https://anonymous.com/Location#santasylvina,-27.7833,-61.15,https://anonymous.com/Location#argentina
https://anonymous.com/Location#coroneldugraty,-27.6667,-60.9333,https://anonymous.com/Location#argentina
https://anonymous.com/Location#urdinarrain,-32.6856,-58.8867,https://anonymous.com/Location#argentina
https://anonymous.com/Location#pampadelinfierno,-26.5167,-61.1667,https://anonymous.com/Location#argentina
https://anonymous.com/Location#rinconada,-22.4333,-66.1667,https://anonymous.com/Location#argentina
https://anonymous.com/Location#comandanteluispiedrabuena,-49.983,-68.91,https://anonymous.com/Location#argentina
https://anonymous.com/Location#ingenierojacobacci,-41.3,-69.5833,https://anonymous.com/Location#argentina
https://anonymous.com/Location#veintiochodenoviembre,-51.65,-72.3,https://anonymous.com/Location#argentina
https://anonymous.com/Location#chepes,-31.35,-66.6,https://anonymous.com/Location#argentina
https://anonymous.com/Location#generalconesa,-40.1,-64.4167,https://anonymous.com/Location#argentina
https://anonymous.com/Location#sanantoniodeloscobres,-24.2178,-66.32,https://anonymous.com/Location#argentina
https://anonymous.com/Location#peritomoreno,-46.5886,-70.9242,https://anonymous.com/Location#argentina
https://anonymous.com/Location#gobernadorgregores,-48.7667,-70.25,https://anonymous.com/Location#argentina
https://anonymous.com/Location#victorica,-36.2167,-65.45,https://anonymous.com/Location#argentina
https://anonymous.com/Location#comandantefontana,-25.3333,-59.6833,https://anonymous.com/Location#argentina
https://anonymous.com/Location#laslajas,-38.6,-70.3,https://anonymous.com/Location#argentina
https://anonymous.com/Location#trancas,-26.2172,-65.2831,https://anonymous.com/Location#argentina
https://anonymous.com/Location#rodeo,-30.2164,-69.1394,https://anonymous.com/Location#argentina
https://anonymous.com/Location#chumbicha,-28.8667,-66.2333,https://anonymous.com/Location#argentina
https://anonymous.com/Location#sierracolorada,-40.5833,-67.8,https://anonymous.com/Location#argentina
https://anonymous.com/Location#susques,-23.4167,-66.4833,https://anonymous.com/Location#argentina
https://anonymous.com/Location#comallo,-41.0333,-70.2667,https://anonymous.com/Location#argentina
https://anonymous.com/Location#gastre,-42.2667,-69.2167,https://anonymous.com/Location#argentina
https://anonymous.com/Location#telsen,-42.3833,-66.95,https://anonymous.com/Location#argentina
https://anonymous.com/Location#pedroluro,-39.5,-62.6833,https://anonymous.com/Location#argentina
https://anonymous.com/Location#montecristo,-31.3431,-63.9444,https://anonymous.com/Location#argentina
https://anonymous.com/Location#romang,-29.5,-59.7667,https://anonymous.com/Location#argentina
https://anonymous.com/Location#viale,-31.8667,-60.0167,https://anonymous.com/Location#argentina
https://anonymous.com/Location#uspallata,-32.5667,-69.3167,https://anonymous.com/Location#argentina
https://anonymous.com/Location#darregueira,-37.6996,-63.1666,https://anonymous.com/Location#argentina
https://anonymous.com/Location#villalonga,-39.8829,-62.5833,https://anonymous.com/Location#argentina
https://anonymous.com/Location#villarumipal,-32.1879,-64.4803,https://anonymous.com/Location#argentina
https://anonymous.com/Location#losblancos,-23.6,-62.6,https://anonymous.com/Location#argentina
https://anonymous.com/Location#yerevan,40.1814,44.5144,https://anonymous.com/Location#armenia
https://anonymous.com/Location#gyumri,40.7894,43.8475,https://anonymous.com/Location#armenia
https://anonymous.com/Location#vanadzor,40.8128,44.4883,https://anonymous.com/Location#armenia
https://anonymous.com/Location#hrazdan,40.5,44.7667,https://anonymous.com/Location#armenia
https://anonymous.com/Location#abovyan,40.2739,44.6256,https://anonymous.com/Location#armenia
https://anonymous.com/Location#kapan,39.2011,46.415,https://anonymous.com/Location#armenia
https://anonymous.com/Location#armavir,40.15,44.04,https://anonymous.com/Location#armenia
https://anonymous.com/Location#charentsavan,40.4097,44.6431,https://anonymous.com/Location#armenia
https://anonymous.com/Location#artashat,39.9539,44.5506,https://anonymous.com/Location#armenia
https://anonymous.com/Location#ashtarak,40.2975,44.3617,https://anonymous.com/Location#armenia
https://anonymous.com/Location#ijevan,40.8792,45.1472,https://anonymous.com/Location#armenia
https://anonymous.com/Location#gavarr,40.3589,45.1267,https://anonymous.com/Location#armenia
https://anonymous.com/Location#norhachn,40.3019,44.5831,https://anonymous.com/Location#armenia
https://anonymous.com/Location#byureghavan,40.3147,44.5936,https://anonymous.com/Location#armenia
https://anonymous.com/Location#yeghegnadzor,39.7611,45.3333,https://anonymous.com/Location#armenia
https://anonymous.com/Location#ejmiatsin,40.1728,44.2925,https://anonymous.com/Location#armenia
https://anonymous.com/Location#sevan,40.555,44.9536,https://anonymous.com/Location#armenia
https://anonymous.com/Location#stepanavan,41.0096,44.3841,https://anonymous.com/Location#armenia
https://anonymous.com/Location#masis,40.0633,44.4408,https://anonymous.com/Location#armenia
https://anonymous.com/Location#goris,39.5078,46.3386,https://anonymous.com/Location#armenia
https://anonymous.com/Location#ararat,39.8303,44.7025,https://anonymous.com/Location#armenia
https://anonymous.com/Location#artik,40.6172,43.9758,https://anonymous.com/Location#armenia
https://anonymous.com/Location#dilijan,40.7408,44.8631,https://anonymous.com/Location#armenia
https://anonymous.com/Location#spitak,40.8372,44.2675,https://anonymous.com/Location#armenia
https://anonymous.com/Location#sisian,39.5208,46.0322,https://anonymous.com/Location#armenia
https://anonymous.com/Location#vedi,39.9106,44.7278,https://anonymous.com/Location#armenia
https://anonymous.com/Location#alaverdi,41.1333,44.65,https://anonymous.com/Location#armenia
https://anonymous.com/Location#vardenis,40.1806,45.72,https://anonymous.com/Location#armenia
https://anonymous.com/Location#martuni,40.14,45.3064,https://anonymous.com/Location#armenia
https://anonymous.com/Location#metsamor,40.1428,44.1164,https://anonymous.com/Location#armenia
https://anonymous.com/Location#yeghvard,40.3217,44.4814,https://anonymous.com/Location#armenia
https://anonymous.com/Location#ayntap,40.0986,44.4681,https://anonymous.com/Location#armenia
https://anonymous.com/Location#berd,40.8808,45.3917,https://anonymous.com/Location#armenia
https://anonymous.com/Location#vardenik,40.1331,45.4367,https://anonymous.com/Location#armenia
https://anonymous.com/Location#akhuryan,40.7814,43.8964,https://anonymous.com/Location#armenia
https://anonymous.com/Location#tashir,41.1244,44.2819,https://anonymous.com/Location#armenia
https://anonymous.com/Location#oranjestad,12.5186,-70.0358,https://anonymous.com/Location#aruba
https://anonymous.com/Location#tankileendert,12.5418,-70.022,https://anonymous.com/Location#aruba
https://anonymous.com/Location#sydney,-33.8678,151.21,https://anonymous.com/Location#australia
https://anonymous.com/Location#melbourne,-37.8142,144.9631,https://anonymous.com/Location#australia
https://anonymous.com/Location#brisbane,-27.4678,153.0281,https://anonymous.com/Location#australia
https://anonymous.com/Location#perth,-31.9559,115.8606,https://anonymous.com/Location#australia
https://anonymous.com/Location#adelaide,-34.9275,138.6,https://anonymous.com/Location#australia
https://anonymous.com/Location#canberra,-35.2931,149.1269,https://anonymous.com/Location#australia
https://anonymous.com/Location#goldcoast,-28.0167,153.4,https://anonymous.com/Location#australia
https://anonymous.com/Location#cranbourne,-38.0996,145.2834,https://anonymous.com/Location#australia
https://anonymous.com/Location#centralcoast,-33.3,151.2,https://anonymous.com/Location#australia
https://anonymous.com/Location#wollongong,-34.4331,150.8831,https://anonymous.com/Location#australia
https://anonymous.com/Location#hobart,-42.8806,147.325,https://anonymous.com/Location#australia
https://anonymous.com/Location#geelong,-38.15,144.35,https://anonymous.com/Location#australia
https://anonymous.com/Location#townsville,-19.25,146.8167,https://anonymous.com/Location#australia
https://anonymous.com/Location#ipswich,-27.6167,152.7667,https://anonymous.com/Location#australia
https://anonymous.com/Location#newcastle,-32.9167,151.75,https://anonymous.com/Location#australia
https://anonymous.com/Location#cairns,-16.92,145.78,https://anonymous.com/Location#australia
https://anonymous.com/Location#darwin,-12.4381,130.8411,https://anonymous.com/Location#australia
https://anonymous.com/Location#toowoomba,-27.5667,151.95,https://anonymous.com/Location#australia
https://anonymous.com/Location#launceston,-41.4419,147.145,https://anonymous.com/Location#australia
https://anonymous.com/Location#caloundra,-26.7986,153.1289,https://anonymous.com/Location#australia
https://anonymous.com/Location#dandenong,-37.981,145.215,https://anonymous.com/Location#australia
https://anonymous.com/Location#campbelltown,-34.0733,150.8261,https://anonymous.com/Location#australia
https://anonymous.com/Location#leopold,-38.1892,144.4644,https://anonymous.com/Location#australia
https://anonymous.com/Location#corinda,-27.4833,153.1,https://anonymous.com/Location#australia
https://anonymous.com/Location#ballarat,-37.5608,143.8475,https://anonymous.com/Location#australia
https://anonymous.com/Location#bendigo,-36.75,144.2667,https://anonymous.com/Location#australia
https://anonymous.com/Location#mackay,-21.1411,149.1858,https://anonymous.com/Location#australia
https://anonymous.com/Location#melton,-37.6833,144.5833,https://anonymous.com/Location#australia
https://anonymous.com/Location#bunbury,-33.3272,115.6369,https://anonymous.com/Location#australia
https://anonymous.com/Location#bundaberg,-24.8661,152.3494,https://anonymous.com/Location#australia
https://anonymous.com/Location#waggawagga,-35.1189,147.3689,https://anonymous.com/Location#australia
https://anonymous.com/Location#herveybay,-25.29,152.84,https://anonymous.com/Location#australia
https://anonymous.com/Location#pakenham,-38.0712,145.4878,https://anonymous.com/Location#australia
https://anonymous.com/Location#portmacquarie,-31.4333,152.9,https://anonymous.com/Location#australia
https://anonymous.com/Location#dubbo,-32.2569,148.6011,https://anonymous.com/Location#australia
https://anonymous.com/Location#orange,-33.2833,149.1,https://anonymous.com/Location#australia
https://anonymous.com/Location#sunbury,-37.5811,144.7139,https://anonymous.com/Location#australia
https://anonymous.com/Location#geraldton,-28.7744,114.6089,https://anonymous.com/Location#australia
https://anonymous.com/Location#frankston,-38.158,145.135,https://anonymous.com/Location#australia
https://anonymous.com/Location#gladstone,-23.8427,151.2555,https://anonymous.com/Location#australia
https://anonymous.com/Location#bathurst,-33.42,149.5778,https://anonymous.com/Location#australia
https://anonymous.com/Location#mildura,-34.1889,142.1583,https://anonymous.com/Location#australia
https://anonymous.com/Location#southport,-27.9667,153.4,https://anonymous.com/Location#australia
https://anonymous.com/Location#shepparton,-36.3833,145.4,https://anonymous.com/Location#australia
https://anonymous.com/Location#kalgoorlie,-30.7489,121.4658,https://anonymous.com/Location#australia
https://anonymous.com/Location#warrnambool,-38.3833,142.4833,https://anonymous.com/Location#australia
https://anonymous.com/Location#albany,-35.0228,117.8814,https://anonymous.com/Location#australia
https://anonymous.com/Location#quakershill,-33.7344,150.8789,https://anonymous.com/Location#australia
https://anonymous.com/Location#burnie,-41.0636,145.8753,https://anonymous.com/Location#australia
https://anonymous.com/Location#coffsharbour,-30.3022,153.1189,https://anonymous.com/Location#australia
https://anonymous.com/Location#caboolture,-27.0667,152.967,https://anonymous.com/Location#australia
https://anonymous.com/Location#mountgambier,-37.8294,140.7828,https://anonymous.com/Location#australia
https://anonymous.com/Location#traralgon,-38.1958,146.5403,https://anonymous.com/Location#australia
https://anonymous.com/Location#busselton,-33.6478,115.3458,https://anonymous.com/Location#australia
https://anonymous.com/Location#armidale,-30.5,151.65,https://anonymous.com/Location#australia
https://anonymous.com/Location#alicesprings,-23.7,133.8667,https://anonymous.com/Location#australia
https://anonymous.com/Location#devonport,-41.18,146.3503,https://anonymous.com/Location#australia
https://anonymous.com/Location#goulburn,-34.7547,149.6186,https://anonymous.com/Location#australia
https://anonymous.com/Location#whyalla,-33.0333,137.5667,https://anonymous.com/Location#australia
https://anonymous.com/Location#kwinana,-32.2394,115.7702,https://anonymous.com/Location#australia
https://anonymous.com/Location#mounteliza,-38.189,145.092,https://anonymous.com/Location#australia
https://anonymous.com/Location#griffith,-34.29,146.04,https://anonymous.com/Location#australia
https://anonymous.com/Location#wodonga,-36.1214,146.8881,https://anonymous.com/Location#australia
https://anonymous.com/Location#narangba,-27.2015,152.9655,https://anonymous.com/Location#australia
https://anonymous.com/Location#brokenhill,-31.95,141.4667,https://anonymous.com/Location#australia
https://anonymous.com/Location#wangaratta,-36.3583,146.3125,https://anonymous.com/Location#australia
https://anonymous.com/Location#taree,-31.9,152.45,https://anonymous.com/Location#australia
https://anonymous.com/Location#banorapoint,-28.2225,153.5386,https://anonymous.com/Location#australia
https://anonymous.com/Location#nerang,-27.9956,153.322,https://anonymous.com/Location#australia
https://anonymous.com/Location#lara,-38.0167,144.4167,https://anonymous.com/Location#australia
https://anonymous.com/Location#karratha,-20.7364,116.8464,https://anonymous.com/Location#australia
https://anonymous.com/Location#cessnock,-32.8342,151.3555,https://anonymous.com/Location#australia
https://anonymous.com/Location#warragul,-38.15,145.9333,https://anonymous.com/Location#australia
https://anonymous.com/Location#maryborough,-25.5375,152.7019,https://anonymous.com/Location#australia
https://anonymous.com/Location#ulladulla,-35.3486,150.4678,https://anonymous.com/Location#australia
https://anonymous.com/Location#ulverstone,-41.1667,146.1667,https://anonymous.com/Location#australia
https://anonymous.com/Location#barwonheads,-38.25,144.5167,https://anonymous.com/Location#australia
https://anonymous.com/Location#horsham,-36.7167,142.2,https://anonymous.com/Location#australia
https://anonymous.com/Location#rochedale,-27.6,153.133,https://anonymous.com/Location#australia
https://anonymous.com/Location#murraybridge,-35.117,139.267,https://anonymous.com/Location#australia
https://anonymous.com/Location#australind,-33.28,115.726,https://anonymous.com/Location#australia
https://anonymous.com/Location#penrith,-33.7511,150.6942,https://anonymous.com/Location#australia
https://anonymous.com/Location#echuca,-36.1333,144.75,https://anonymous.com/Location#australia
https://anonymous.com/Location#morwell,-38.2333,146.4,https://anonymous.com/Location#australia
https://anonymous.com/Location#portlincoln,-34.7322,135.8586,https://anonymous.com/Location#australia
https://anonymous.com/Location#forster,-32.1806,152.5117,https://anonymous.com/Location#australia
https://anonymous.com/Location#mountbarker,-35.0667,138.85,https://anonymous.com/Location#australia
https://anonymous.com/Location#goonellabah,-28.8167,153.3167,https://anonymous.com/Location#australia
https://anonymous.com/Location#bongaree,-27.0813,153.1636,https://anonymous.com/Location#australia
https://anonymous.com/Location#emerald,-23.5208,148.1619,https://anonymous.com/Location#australia
https://anonymous.com/Location#sale,-38.1,147.0667,https://anonymous.com/Location#australia
https://anonymous.com/Location#rutherford,-32.715,151.5317,https://anonymous.com/Location#australia
https://anonymous.com/Location#jimboomba,-27.83,153.0313,https://anonymous.com/Location#australia
https://anonymous.com/Location#torquay,-38.3333,144.3167,https://anonymous.com/Location#australia
https://anonymous.com/Location#raymondterrace,-32.7615,151.7441,https://anonymous.com/Location#australia
https://anonymous.com/Location#dalby,-27.1813,151.2661,https://anonymous.com/Location#australia
https://anonymous.com/Location#muswellbrook,-32.2654,150.8885,https://anonymous.com/Location#australia
https://anonymous.com/Location#warwick,-28.2152,152.0352,https://anonymous.com/Location#australia
https://anonymous.com/Location#drouin,-38.1333,145.85,https://anonymous.com/Location#australia
https://anonymous.com/Location#inverell,-29.7667,151.1167,https://anonymous.com/Location#australia
https://anonymous.com/Location#parkes,-33.133,148.176,https://anonymous.com/Location#australia
https://anonymous.com/Location#wallan,-37.4167,144.9833,https://anonymous.com/Location#australia
https://anonymous.com/Location#nambour,-26.6269,152.9591,https://anonymous.com/Location#australia
https://anonymous.com/Location#somerville,-38.226,145.177,https://anonymous.com/Location#australia
https://anonymous.com/Location#kingston,-42.9769,147.3083,https://anonymous.com/Location#australia
https://anonymous.com/Location#broome,-17.9619,122.2361,https://anonymous.com/Location#australia
https://anonymous.com/Location#casino,-28.8667,153.05,https://anonymous.com/Location#australia
https://anonymous.com/Location#mareeba,-16.9833,145.4167,https://anonymous.com/Location#australia
https://anonymous.com/Location#batemansbay,-35.7081,150.1744,https://anonymous.com/Location#australia
https://anonymous.com/Location#gympie,-26.19,152.6655,https://anonymous.com/Location#australia
https://anonymous.com/Location#gracemere,-23.4391,150.4558,https://anonymous.com/Location#australia
https://anonymous.com/Location#grafton,-29.6833,152.9333,https://anonymous.com/Location#australia
https://anonymous.com/Location#nelsonbay,-32.715,152.1511,https://anonymous.com/Location#australia
https://anonymous.com/Location#young,-34.3,148.3,https://anonymous.com/Location#australia
https://anonymous.com/Location#bowral,-34.4792,150.4181,https://anonymous.com/Location#australia
https://anonymous.com/Location#nowra,-34.8808,150.6075,https://anonymous.com/Location#australia
https://anonymous.com/Location#swanhill,-35.3333,143.55,https://anonymous.com/Location#australia
https://anonymous.com/Location#mountevelyn,-37.783,145.385,https://anonymous.com/Location#australia
https://anonymous.com/Location#benalla,-36.5519,145.9817,https://anonymous.com/Location#australia
https://anonymous.com/Location#mudgee,-32.6125,149.5872,https://anonymous.com/Location#australia
https://anonymous.com/Location#cowra,-33.8183,148.6578,https://anonymous.com/Location#australia
https://anonymous.com/Location#kangarooflat,-36.7833,144.233,https://anonymous.com/Location#australia
https://anonymous.com/Location#hamilton,-37.7333,142.0167,https://anonymous.com/Location#australia
https://anonymous.com/Location#bowen,-20.0102,148.2416,https://anonymous.com/Location#australia
https://anonymous.com/Location#ballina,-28.8333,153.5333,https://anonymous.com/Location#australia
https://anonymous.com/Location#andergrove,-21.0931,149.186,https://anonymous.com/Location#australia
https://anonymous.com/Location#moree,-29.465,149.8344,https://anonymous.com/Location#australia
https://anonymous.com/Location#kingaroy,-26.5408,151.8394,https://anonymous.com/Location#australia
https://anonymous.com/Location#portland,-38.3333,141.6,https://anonymous.com/Location#australia
https://anonymous.com/Location#gunnedah,-30.9817,150.2511,https://anonymous.com/Location#australia
https://anonymous.com/Location#colac,-38.3403,143.5847,https://anonymous.com/Location#australia
https://anonymous.com/Location#leeton,-34.5667,146.4,https://anonymous.com/Location#australia
https://anonymous.com/Location#highfields,-27.4633,151.9458,https://anonymous.com/Location#australia
https://anonymous.com/Location#tweedheads,-28.1833,153.55,https://anonymous.com/Location#australia
https://anonymous.com/Location#yanchep,-31.55,115.634,https://anonymous.com/Location#australia
https://anonymous.com/Location#currumbin,-28.158,153.469,https://anonymous.com/Location#australia
https://anonymous.com/Location#kelso,-33.4186,149.6056,https://anonymous.com/Location#australia
https://anonymous.com/Location#mossvale,-34.55,150.3833,https://anonymous.com/Location#australia
https://anonymous.com/Location#mandurah,-32.5289,115.7231,https://anonymous.com/Location#australia
https://anonymous.com/Location#katoomba,-33.715,150.312,https://anonymous.com/Location#australia
https://anonymous.com/Location#gisborne,-37.49,144.5889,https://anonymous.com/Location#australia
https://anonymous.com/Location#wollert,-37.5833,145.0333,https://anonymous.com/Location#australia
https://anonymous.com/Location#ayr,-19.5744,147.4066,https://anonymous.com/Location#australia
https://anonymous.com/Location#ararat,-37.2833,142.9167,https://anonymous.com/Location#australia
https://anonymous.com/Location#charterstowers,-20.0765,146.2614,https://anonymous.com/Location#australia
https://anonymous.com/Location#moe,-38.1722,146.2678,https://anonymous.com/Location#australia
https://anonymous.com/Location#deniliquin,-35.5331,144.9667,https://anonymous.com/Location#australia
https://anonymous.com/Location#moranbah,-22.0016,148.0533,https://anonymous.com/Location#australia
https://anonymous.com/Location#forbes,-33.3817,148.0011,https://anonymous.com/Location#australia
https://anonymous.com/Location#redlynch,-16.8833,145.7,https://anonymous.com/Location#australia
https://anonymous.com/Location#maryborough,-37.05,143.735,https://anonymous.com/Location#australia
https://anonymous.com/Location#narrabri,-30.3317,149.7678,https://anonymous.com/Location#australia
https://anonymous.com/Location#bairnsdale,-37.8333,147.6167,https://anonymous.com/Location#australia
https://anonymous.com/Location#portaugusta,-32.4925,137.7658,https://anonymous.com/Location#australia
https://anonymous.com/Location#kiama,-34.6708,150.8542,https://anonymous.com/Location#australia
https://anonymous.com/Location#atherton,-17.2658,145.478,https://anonymous.com/Location#australia
https://anonymous.com/Location#seymour,-37.03,145.13,https://anonymous.com/Location#australia
https://anonymous.com/Location#newman,-23.3539,119.7319,https://anonymous.com/Location#australia
https://anonymous.com/Location#cooma,-36.2317,149.1178,https://anonymous.com/Location#australia
https://anonymous.com/Location#tumut,-35.3039,148.2233,https://anonymous.com/Location#australia
https://anonymous.com/Location#roma,-26.5733,148.7869,https://anonymous.com/Location#australia
https://anonymous.com/Location#yamba,-29.44,153.3594,https://anonymous.com/Location#australia
https://anonymous.com/Location#northam,-31.6531,116.6661,https://anonymous.com/Location#australia
https://anonymous.com/Location#stawell,-37.05,142.7667,https://anonymous.com/Location#australia
https://anonymous.com/Location#yeppoon,-23.1288,150.7444,https://anonymous.com/Location#australia
https://anonymous.com/Location#scone,-32.0483,150.8678,https://anonymous.com/Location#australia
https://anonymous.com/Location#goondiwindi,-28.5461,150.3097,https://anonymous.com/Location#australia
https://anonymous.com/Location#cobram,-35.9667,145.65,https://anonymous.com/Location#australia
https://anonymous.com/Location#queanbeyan,-35.3533,149.2342,https://anonymous.com/Location#australia
https://anonymous.com/Location#albury,-36.0806,146.9158,https://anonymous.com/Location#australia
https://anonymous.com/Location#lithgow,-33.4833,150.15,https://anonymous.com/Location#australia
https://anonymous.com/Location#richmond,-33.5983,150.7511,https://anonymous.com/Location#australia
https://anonymous.com/Location#biloela,-24.4002,150.5133,https://anonymous.com/Location#australia
https://anonymous.com/Location#byronbay,-28.6483,153.6178,https://anonymous.com/Location#australia
https://anonymous.com/Location#singleton,-32.5667,151.1697,https://anonymous.com/Location#australia
https://anonymous.com/Location#wonthaggi,-38.6056,145.5917,https://anonymous.com/Location#australia
https://anonymous.com/Location#kununurra,-15.7736,128.7386,https://anonymous.com/Location#australia
https://anonymous.com/Location#berri,-34.2833,140.6,https://anonymous.com/Location#australia
https://anonymous.com/Location#victorharbor,-35.55,138.6167,https://anonymous.com/Location#australia
https://anonymous.com/Location#lismore,-28.8167,153.2833,https://anonymous.com/Location#australia
https://anonymous.com/Location#ingham,-18.6508,146.1572,https://anonymous.com/Location#australia
https://anonymous.com/Location#smithton,-40.844,145.12,https://anonymous.com/Location#australia
https://anonymous.com/Location#narrogin,-32.936,117.178,https://anonymous.com/Location#australia
https://anonymous.com/Location#manjimup,-34.2411,116.1464,https://anonymous.com/Location#australia
https://anonymous.com/Location#merimbula,-36.8983,149.9011,https://anonymous.com/Location#australia
https://anonymous.com/Location#porthedland,-20.31,118.6011,https://anonymous.com/Location#australia
https://anonymous.com/Location#weipa,-12.63,141.8786,https://anonymous.com/Location#australia
https://anonymous.com/Location#clare,-33.8333,138.6,https://anonymous.com/Location#australia
https://anonymous.com/Location#proserpine,-20.4016,148.5808,https://anonymous.com/Location#australia
https://anonymous.com/Location#wallaroo,-33.9167,137.6167,https://anonymous.com/Location#australia
https://anonymous.com/Location#katanning,-33.6908,117.5553,https://anonymous.com/Location#australia
https://anonymous.com/Location#portdouglas,-16.4834,145.4652,https://anonymous.com/Location#australia
https://anonymous.com/Location#charleville,-26.4016,146.2383,https://anonymous.com/Location#australia
https://anonymous.com/Location#bordertown,-36.3118,140.7702,https://anonymous.com/Location#australia
https://anonymous.com/Location#tomprice,-22.6939,117.795,https://anonymous.com/Location#australia
https://anonymous.com/Location#esperance,-33.8611,121.8919,https://anonymous.com/Location#australia
https://anonymous.com/Location#longreach,-23.4422,144.2491,https://anonymous.com/Location#australia
https://anonymous.com/Location#merredin,-31.482,118.279,https://anonymous.com/Location#australia
https://anonymous.com/Location#mountbarker,-34.63,117.6669,https://anonymous.com/Location#australia
https://anonymous.com/Location#cloncurry,-20.7047,140.5052,https://anonymous.com/Location#australia
https://anonymous.com/Location#scottsdale,-41.1667,147.5167,https://anonymous.com/Location#australia
https://anonymous.com/Location#bourke,-30.1,145.9333,https://anonymous.com/Location#australia
https://anonymous.com/Location#exmouth,-21.9331,114.1281,https://anonymous.com/Location#australia
https://anonymous.com/Location#queenstown,-42.0667,145.55,https://anonymous.com/Location#australia
https://anonymous.com/Location#tumbybay,-34.3667,136.1,https://anonymous.com/Location#australia
https://anonymous.com/Location#rockhampton,-23.3781,150.5136,https://anonymous.com/Location#australia
https://anonymous.com/Location#maitland,-32.7167,151.55,https://anonymous.com/Location#australia
https://anonymous.com/Location#penola,-37.3786,140.8362,https://anonymous.com/Location#australia
https://anonymous.com/Location#innisfail,-17.5238,146.0311,https://anonymous.com/Location#australia
https://anonymous.com/Location#barcaldine,-23.5555,145.2888,https://anonymous.com/Location#australia
https://anonymous.com/Location#kingstonsoutheast,-36.8167,139.85,https://anonymous.com/Location#australia
https://anonymous.com/Location#gawler,-34.5981,138.745,https://anonymous.com/Location#australia
https://anonymous.com/Location#peterborough,-32.9667,138.8333,https://anonymous.com/Location#australia
https://anonymous.com/Location#streakybay,-32.8,134.2167,https://anonymous.com/Location#australia
https://anonymous.com/Location#kalbarri,-27.71,114.16,https://anonymous.com/Location#australia
https://anonymous.com/Location#ouyen,-35.0667,142.317,https://anonymous.com/Location#australia
https://anonymous.com/Location#hallscreek,-18.23,127.67,https://anonymous.com/Location#australia
https://anonymous.com/Location#portdenison,-29.275,114.9194,https://anonymous.com/Location#australia
https://anonymous.com/Location#wagin,-33.3167,117.35,https://anonymous.com/Location#australia
https://anonymous.com/Location#katherine,-14.4667,132.2667,https://anonymous.com/Location#australia
https://anonymous.com/Location#portpirie,-33.1858,138.0169,https://anonymous.com/Location#australia
https://anonymous.com/Location#meningie,-35.6883,139.338,https://anonymous.com/Location#australia
https://anonymous.com/Location#hughenden,-20.8438,144.1986,https://anonymous.com/Location#australia
https://anonymous.com/Location#cowell,-33.6833,136.9167,https://anonymous.com/Location#australia
https://anonymous.com/Location#yulara,-25.2406,130.9889,https://anonymous.com/Location#australia
https://anonymous.com/Location#bicheno,-41.8667,148.2833,https://anonymous.com/Location#australia
https://anonymous.com/Location#roebourne,-20.7667,117.15,https://anonymous.com/Location#australia
https://anonymous.com/Location#winton,-22.3913,143.0381,https://anonymous.com/Location#australia
https://anonymous.com/Location#oatlands,-42.3,147.3706,https://anonymous.com/Location#australia
https://anonymous.com/Location#kempsey,-31.0833,152.8333,https://anonymous.com/Location#australia
https://anonymous.com/Location#gingin,-31.34,115.91,https://anonymous.com/Location#australia
https://anonymous.com/Location#wilcannia,-31.565,143.3678,https://anonymous.com/Location#australia
https://anonymous.com/Location#laverton,-28.628,122.403,https://anonymous.com/Location#australia
https://anonymous.com/Location#onslow,-21.6333,115.1167,https://anonymous.com/Location#australia
https://anonymous.com/Location#tamworth,-31.0833,150.9167,https://anonymous.com/Location#australia
https://anonymous.com/Location#leonora,-28.8845,121.3308,https://anonymous.com/Location#australia
https://anonymous.com/Location#wyndham,-15.4825,128.123,https://anonymous.com/Location#australia
https://anonymous.com/Location#eidsvold,-25.3667,151.1333,https://anonymous.com/Location#australia
https://anonymous.com/Location#pannawonica,-21.635,116.336,https://anonymous.com/Location#australia
https://anonymous.com/Location#meekatharra,-26.5931,118.4911,https://anonymous.com/Location#australia
https://anonymous.com/Location#southerncross,-31.25,119.35,https://anonymous.com/Location#australia
https://anonymous.com/Location#threesprings,-29.5333,115.7617,https://anonymous.com/Location#australia
https://anonymous.com/Location#kimba,-33.1333,136.417,https://anonymous.com/Location#australia
https://anonymous.com/Location#richmond,-20.7305,143.1425,https://anonymous.com/Location#australia
https://anonymous.com/Location#theodore,-24.95,150.0833,https://anonymous.com/Location#australia
https://anonymous.com/Location#norseman,-32.1961,121.778,https://anonymous.com/Location#australia
https://anonymous.com/Location#karumba,-17.4838,140.8397,https://anonymous.com/Location#australia
https://anonymous.com/Location#morawa,-29.2111,116.009,https://anonymous.com/Location#australia
https://anonymous.com/Location#andamooka,-30.447,137.166,https://anonymous.com/Location#australia
https://anonymous.com/Location#ravensthorpe,-33.5831,120.049,https://anonymous.com/Location#australia
https://anonymous.com/Location#georgetown,-18.3,143.55,https://anonymous.com/Location#australia
https://anonymous.com/Location#mountmagnet,-28.06,117.846,https://anonymous.com/Location#australia
https://anonymous.com/Location#boulia,-22.9,139.9,https://anonymous.com/Location#australia
https://anonymous.com/Location#adelaideriver,-13.2381,131.1061,https://anonymous.com/Location#australia
https://anonymous.com/Location#burketown,-17.7167,139.5667,https://anonymous.com/Location#australia
https://anonymous.com/Location#ivanhoe,-32.8983,144.3,https://anonymous.com/Location#australia
https://anonymous.com/Location#thargomindah,-28,143.8167,https://anonymous.com/Location#australia
https://anonymous.com/Location#pinecreek,-13.8231,131.833,https://anonymous.com/Location#australia
https://anonymous.com/Location#camooweal,-19.9167,138.117,https://anonymous.com/Location#australia
https://anonymous.com/Location#carnarvon,-24.8672,113.6611,https://anonymous.com/Location#australia
https://anonymous.com/Location#birdsville,-25.8989,139.352,https://anonymous.com/Location#australia
https://anonymous.com/Location#bedourie,-24.35,139.4667,https://anonymous.com/Location#australia
https://anonymous.com/Location#mountisa,-20.7261,139.4938,https://anonymous.com/Location#australia
https://anonymous.com/Location#windorah,-25.4206,142.6547,https://anonymous.com/Location#australia
https://anonymous.com/Location#kingoonya,-30.9,135.3,https://anonymous.com/Location#australia
https://anonymous.com/Location#mcMinnslagoon,-12.5329,131.05,https://anonymous.com/Location#australia
https://anonymous.com/Location#ceduna,-32.1167,133.6667,https://anonymous.com/Location#australia
https://anonymous.com/Location#quilpie,-26.6161,144.2675,https://anonymous.com/Location#australia
https://anonymous.com/Location#woomera,-31.1496,136.8,https://anonymous.com/Location#australia
https://anonymous.com/Location#vienna,48.2083,16.3725,https://anonymous.com/Location#austria
https://anonymous.com/Location#graz,47.0708,15.4386,https://anonymous.com/Location#austria
https://anonymous.com/Location#linz,48.3058,14.2864,https://anonymous.com/Location#austria
https://anonymous.com/Location#salzburg,47.8,13.045,https://anonymous.com/Location#austria
https://anonymous.com/Location#innsbruck,47.2683,11.3933,https://anonymous.com/Location#austria
https://anonymous.com/Location#klagenfurt,46.6167,14.3,https://anonymous.com/Location#austria
https://anonymous.com/Location#bregenz,47.505,9.7492,https://anonymous.com/Location#austria
https://anonymous.com/Location#hallintirol,47.2833,11.5,https://anonymous.com/Location#austria
https://anonymous.com/Location#eisenstadt,47.85,16.5167,https://anonymous.com/Location#austria
https://anonymous.com/Location#villach,46.6167,13.8333,https://anonymous.com/Location#austria
https://anonymous.com/Location#wels,48.15,14.0167,https://anonymous.com/Location#austria
https://anonymous.com/Location#dornbirn,47.4167,9.75,https://anonymous.com/Location#austria
https://anonymous.com/Location#wienerneustadt,47.8167,16.25,https://anonymous.com/Location#austria
https://anonymous.com/Location#steyr,48.0333,14.4167,https://anonymous.com/Location#austria
https://anonymous.com/Location#leonding,48.2792,14.2528,https://anonymous.com/Location#austria
https://anonymous.com/Location#klosterneuburg,48.3042,16.3167,https://anonymous.com/Location#austria
https://anonymous.com/Location#baden,48.0075,16.2344,https://anonymous.com/Location#austria
https://anonymous.com/Location#traun,48.2217,14.2397,https://anonymous.com/Location#austria
https://anonymous.com/Location#wolfsberg,46.8419,14.8408,https://anonymous.com/Location#austria
https://anonymous.com/Location#kremsanderdonau,48.4167,15.6167,https://anonymous.com/Location#austria
https://anonymous.com/Location#leoben,47.3817,15.0972,https://anonymous.com/Location#austria
https://anonymous.com/Location#amstetten,48.1167,14.8667,https://anonymous.com/Location#austria
https://anonymous.com/Location#lustenau,47.4271,9.6711,https://anonymous.com/Location#austria
https://anonymous.com/Location#kapfenberg,47.4394,15.2894,https://anonymous.com/Location#austria
https://anonymous.com/Location#hallein,47.6667,13.0833,https://anonymous.com/Location#austria
https://anonymous.com/Location#kufstein,47.5833,12.1667,https://anonymous.com/Location#austria
https://anonymous.com/Location#traiskirchen,48.0189,16.2922,https://anonymous.com/Location#austria
https://anonymous.com/Location#schwechat,48.1411,16.4786,https://anonymous.com/Location#austria
https://anonymous.com/Location#stockerau,48.3858,16.2108,https://anonymous.com/Location#austria
https://anonymous.com/Location#braunauaminn,48.2583,13.0333,https://anonymous.com/Location#austria
https://anonymous.com/Location#hohenems,47.3667,9.6667,https://anonymous.com/Location#austria
https://anonymous.com/Location#saalfeldenamsteinernenmeer,47.4269,12.8483,https://anonymous.com/Location#austria
https://anonymous.com/Location#ansfelden,48.2083,14.2889,https://anonymous.com/Location#austria
https://anonymous.com/Location#telfs,47.3069,11.0722,https://anonymous.com/Location#austria
https://anonymous.com/Location#bruckandermur,47.4106,15.2686,https://anonymous.com/Location#austria
https://anonymous.com/Location#perchtoldsdorf,48.1167,16.2667,https://anonymous.com/Location#austria
https://anonymous.com/Location#spittalanderdrau,46.7917,13.4958,https://anonymous.com/Location#austria
https://anonymous.com/Location#bludenz,47.1533,9.8219,https://anonymous.com/Location#austria
https://anonymous.com/Location#ternitz,47.7167,16.0333,https://anonymous.com/Location#austria
https://anonymous.com/Location#schwaz,47.35,11.7,https://anonymous.com/Location#austria
https://anonymous.com/Location#feldkirchen,46.7236,14.0919,https://anonymous.com/Location#austria
https://anonymous.com/Location#korneuburg,48.3453,16.3331,https://anonymous.com/Location#austria
https://anonymous.com/Location#hard,47.4892,9.69,https://anonymous.com/Location#austria
https://anonymous.com/Location#badischl,47.7115,13.6239,https://anonymous.com/Location#austria
https://anonymous.com/Location#marchtrenk,48.1917,14.1106,https://anonymous.com/Location#austria
https://anonymous.com/Location#feldbach,46.955,15.8883,https://anonymous.com/Location#austria
https://anonymous.com/Location#knittelfeld,47.215,14.8294,https://anonymous.com/Location#austria
https://anonymous.com/Location#neunkirchen,47.7269,16.0817,https://anonymous.com/Location#austria
https://anonymous.com/Location#brunnamgebirge,48.1069,16.2842,https://anonymous.com/Location#austria
https://anonymous.com/Location#gmunden,47.9181,13.7994,https://anonymous.com/Location#austria
https://anonymous.com/Location#sanktveitanderglan,46.7667,14.3603,https://anonymous.com/Location#austria
https://anonymous.com/Location#leibnitz,46.7831,15.545,https://anonymous.com/Location#austria
https://anonymous.com/Location#lienz,46.8297,12.7697,https://anonymous.com/Location#austria
https://anonymous.com/Location#rankweil,47.2667,9.65,https://anonymous.com/Location#austria
https://anonymous.com/Location#enns,48.2167,14.475,https://anonymous.com/Location#austria
https://anonymous.com/Location#weiz,47.2189,15.6253,https://anonymous.com/Location#austria
https://anonymous.com/Location#riediminnkreis,48.21,13.4894,https://anonymous.com/Location#austria
https://anonymous.com/Location#hollabrunn,48.5667,16.0833,https://anonymous.com/Location#austria
https://anonymous.com/Location#deutschlandsberg,46.8161,15.215,https://anonymous.com/Location#austria
https://anonymous.com/Location#mistelbach,48.5667,16.5667,https://anonymous.com/Location#austria
https://anonymous.com/Location#gerasdorfbeiwien,48.295,16.4675,https://anonymous.com/Location#austria
https://anonymous.com/Location#waidhofenanderybbs,47.9596,14.7745,https://anonymous.com/Location#austria
https://anonymous.com/Location#sanktjohannimpongau,47.35,13.2,https://anonymous.com/Location#austria
https://anonymous.com/Location#trofaiach,47.4261,15.0067,https://anonymous.com/Location#austria
https://anonymous.com/Location#ebreichsdorf,47.9611,16.4047,https://anonymous.com/Location#austria
https://anonymous.com/Location#gleisdorf,47.1039,15.7083,https://anonymous.com/Location#austria
https://anonymous.com/Location#wienerneudorf,48.0856,16.3131,https://anonymous.com/Location#austria
https://anonymous.com/Location#zwettl,48.6033,15.1689,https://anonymous.com/Location#austria
https://anonymous.com/Location#lauterach,47.4772,9.7314,https://anonymous.com/Location#austria
https://anonymous.com/Location#strasshofandernordbahn,48.3194,16.6475,https://anonymous.com/Location#austria
https://anonymous.com/Location#bischofshofen,47.4172,13.2194,https://anonymous.com/Location#austria
https://anonymous.com/Location#imst,47.2394,10.7381,https://anonymous.com/Location#austria
https://anonymous.com/Location#mariaenzersdorf,48.1,16.2833,https://anonymous.com/Location#austria
https://anonymous.com/Location#rum,47.2872,11.4581,https://anonymous.com/Location#austria
https://anonymous.com/Location#laakirchen,47.9828,13.8242,https://anonymous.com/Location#austria
https://anonymous.com/Location#judenburg,47.1725,14.6603,https://anonymous.com/Location#austria
https://anonymous.com/Location#purkersdorf,48.2092,16.1792,https://anonymous.com/Location#austria
https://anonymous.com/Location#zellamsee,47.3233,12.7981,https://anonymous.com/Location#austria
https://anonymous.com/Location#guntramsdorf,48.0483,16.315,https://anonymous.com/Location#austria
https://anonymous.com/Location#voitsberg,47.0483,15.1503,https://anonymous.com/Location#austria
https://anonymous.com/Location#sierning,48.0447,14.31,https://anonymous.com/Location#austria
https://anonymous.com/Location#sanktjohannintirol,47.5225,12.4256,https://anonymous.com/Location#austria
https://anonymous.com/Location#sanktvalentin,48.1747,14.5333,https://anonymous.com/Location#austria
https://anonymous.com/Location#berndorf,47.9428,16.1036,https://anonymous.com/Location#austria
https://anonymous.com/Location#engerwitzdorf,48.3397,14.4256,https://anonymous.com/Location#austria
https://anonymous.com/Location#stainz,46.8942,15.2639,https://anonymous.com/Location#austria
https://anonymous.com/Location#baku,40.3667,49.8352,https://anonymous.com/Location#azerbaijan
https://anonymous.com/Location#yevlax,40.6172,47.15,https://anonymous.com/Location#azerbaijan
https://anonymous.com/Location#qazax,41.0933,45.3661,https://anonymous.com/Location#azerbaijan
https://anonymous.com/Location#zaqatala,41.6336,46.6433,https://anonymous.com/Location#azerbaijan
https://anonymous.com/Location#sabirabad,40.0128,48.4789,https://anonymous.com/Location#azerbaijan
https://anonymous.com/Location#salyan,39.595,48.9792,https://anonymous.com/Location#azerbaijan
https://anonymous.com/Location#zabrat,40.4872,49.9525,https://anonymous.com/Location#azerbaijan
https://anonymous.com/Location#quba,41.3597,48.5125,https://anonymous.com/Location#azerbaijan
https://anonymous.com/Location#astara,38.4561,48.8786,https://anonymous.com/Location#azerbaijan
https://anonymous.com/Location#qusar,41.4264,48.4356,https://anonymous.com/Location#azerbaijan
https://anonymous.com/Location#ucar,40.5183,47.6542,https://anonymous.com/Location#azerbaijan
https://anonymous.com/Location#tovuz,40.9922,45.6289,https://anonymous.com/Location#azerbaijan
